{"request":{"street":"undefined","latitude":"20.9582816","name":"Ngõ 2","street_number":"undefined","type":"114","longitude":"105.8034051"},"way_id":599508339}
{"request":{"street":"46, Quang Trung, Quận Hà Đông, Thành Phố Hà Nội, Tân Triều","latitude":"20.9587115","name":"Cửa Hàng Vật Liệu Xây Dựng Nguyễn Văn Thái","street_number":"46, Quang Trung, Quận Hà Đông, Thành Phố Hà Nội, Tân Triều","type":"93","longitude":"105.8034420"},"way_id":599508339}
{"request":{"street":"Tả Thanh Oai","latitude":"20.9332030","name":"Tả Thanh Oai","street_number":"Tả Thanh Oai","type":"2","longitude":"105.8084823"},"way_id":599508339}
{"request":{"street":"Kiến Hưng","latitude":"20.9528073","name":"Kiến Hưng","street_number":"Kiến Hưng","type":"2","longitude":"105.7850022"},"way_id":599527184}
{"request":{"street":"undefined","latitude":"20.9626857","name":"Trường Tiểu học MARIE CURIE II","street_number":"undefined","type":"5","longitude":"105.7859648"},"way_id":599527184}
{"request":{"street":"136 khu tập thể Cầu đường, tổ 1, Đa Sỹ","latitude":"20.9625523","name":"studio tvh","street_number":"136 khu tập thể Cầu đường, tổ 1, Đa Sỹ","type":"93","longitude":"105.7857915"},"way_id":599527184}
{"request":{"street":"undefined","latitude":"20.9810080","name":"75-61 Phố Lụa","street_number":"undefined","type":"114","longitude":"105.7762033"},"way_id":684921433}
{"request":{"street":"Đường Vạn Phúc, Vạn Phúc","latitude":"20.9812255","name":"Nhà Thuốc Song Châu","street_number":"Đường Vạn Phúc, Vạn Phúc","type":"93","longitude":"105.7765442"},"way_id":684921433}
{"request":{"street":"Đường Vạn Phúc, Vạn Phúc","latitude":"20.9812505","name":"Cửa Hàng Tạp Hóa Vân Dương","street_number":"Đường Vạn Phúc, Vạn Phúc","type":"93","longitude":"105.7765281"},"way_id":684921433}
{"request":{"street":"Số 12 Ngõ 133, Vạn Phúc","latitude":"20.9812284","name":"Elemento Viet Nam","street_number":"Số 12 Ngõ 133, Vạn Phúc","type":"93","longitude":"105.7768710"},"way_id":684921433}
{"request":{"street":"Số 133 Ngô Thì Sỹ, Vạn Phúc","latitude":"20.9810483","name":"Phòng Khám Đông Y Gia Phúc","street_number":"Số 133 Ngô Thì Sỹ, Vạn Phúc","type":"4","longitude":"105.7767741"},"way_id":684921433}
{"request":{"street":"Số 1 Ngõ 75 Phố Lụa, làng Vạn Phúc","latitude":"20.9812183","name":"Hà Kiều Hair Salon","street_number":"Số 1 Ngõ 75 Phố Lụa, làng Vạn Phúc","type":"100","longitude":"105.7763476"},"way_id":684921433}
{"request":{"street":"79 Phố Lụa, Vạn Phúc","latitude":"20.9811000","name":"Tiệm Sửa Xe Giang Sơn","street_number":"79 Phố Lụa, Vạn Phúc","type":"108","longitude":"105.7764130"},"way_id":684921433}
{"request":{"street":"8 Ngõ 77 Phố Lụa, Vạn Phúc","latitude":"20.9815010","name":"Co Diesel","street_number":"8 Ngõ 77 Phố Lụa, Vạn Phúc","type":"115","longitude":"105.7768500"},"way_id":684921433}
{"request":{"street":"Unnamed Road","latitude":"20.9811040","name":"Thịt xiên nướng bà béo","street_number":"Unnamed Road","type":"114","longitude":"105.7763803"},"way_id":684921433}
{"request":{"street":"52 Phố Lụa, Vạn Phúc","latitude":"20.9810714","name":"Cửa Hàng Điện Gia Dụng Việt","street_number":"52 Phố Lụa, Vạn Phúc","type":"93","longitude":"105.7763736"},"way_id":684921433}
{"request":{"street":"Phố Lụa, Phường Vạn Phúc, Quận Hà Đông, Thành Phố Hà Nội, Vạn Phúc","latitude":"20.9810455","name":"Đại Lý Tạp Hóa Vân Nhi","street_number":"Phố Lụa, Phường Vạn Phúc, Quận Hà Đông, Thành Phố Hà Nội, Vạn Phúc","type":"93","longitude":"105.7763312"},"way_id":684921433}
{"request":{"street":"Đường Vạn Phúc, Vạn Phúc","latitude":"20.9810952","name":"Cửa Hàng Tạp Hóa Vân Nhi","street_number":"Đường Vạn Phúc, Vạn Phúc","type":"93","longitude":"105.7762921"},"way_id":684921433}
{"request":{"street":"Vạn Phúc","latitude":"20.9786876","name":"Vạn Phúc","street_number":"Vạn Phúc","type":"2","longitude":"105.7717960"},"way_id":684921433}
{"request":{"street":"undefined","latitude":"20.9565878","name":"80-84 Mậu Lương","street_number":"undefined","type":"114","longitude":"105.7945519"},"way_id":599518197}
{"request":{"street":"cầu Tó, Kiến Hưng","latitude":"20.9565890","name":"Đại lý ủy quyền công tyTNHH thương nghiệp hợp phát","street_number":"cầu Tó, Kiến Hưng","type":"93","longitude":"105.7945630"},"way_id":599518197}
{"request":{"street":"54 tổ 11,Mậu Lương, P. Kiến Hưng,Q. Hà Đông,TP. Hà Nội","latitude":"20.9569550","name":"Công ty cổ phần sản xuất và kinh doanh thương mại TC","street_number":"54 tổ 11,Mậu Lương, P. Kiến Hưng,Q. Hà Đông,TP. Hà Nội","type":"114","longitude":"105.7944818"},"way_id":599518197}
{"request":{"street":"138, Tổ 10, Đường Mậu Lương, Phường Kiến Hưng, Quận Hà Đông, Kiến Hưng","latitude":"20.9568765","name":"Hợp Tác Xã Dịch Vụ Tổng Hợp Mậu Lương","street_number":"138, Tổ 10, Đường Mậu Lương, Phường Kiến Hưng, Quận Hà Đông, Kiến Hưng","type":"114","longitude":"105.7944078"},"way_id":599518197}
{"request":{"street":"Tầng 2, Nhà Văn Hóa Mậu Lương Phường Kiến Hưng, Quận Hà Đông, Kiến Hưng","latitude":"20.9568295","name":"Câu Lạc Bộ Thể Hình Bảo Minh","street_number":"Tầng 2, Nhà Văn Hóa Mậu Lương Phường Kiến Hưng, Quận Hà Đông, Kiến Hưng","type":"114","longitude":"105.7943502"},"way_id":599518197}
{"request":{"street":"140, Đường Mậu Lương, Phường Kiến Hưng, Quận Hà Đông, Kiến Hưng","latitude":"20.9567845","name":"Đại Lý Gạo","street_number":"140, Đường Mậu Lương, Phường Kiến Hưng, Quận Hà Đông, Kiến Hưng","type":"114","longitude":"105.7945524"},"way_id":599518197}
{"request":{"street":"22, Tổ 11 Đường Mậu Lương Phường Kiến Hưng, Quận Hà Đông, Kiến Hưng","latitude":"20.9567622","name":"Cửa Hàng Nhôm Kính Inox Phú Cường","street_number":"22, Tổ 11 Đường Mậu Lương Phường Kiến Hưng, Quận Hà Đông, Kiến Hưng","type":"93","longitude":"105.7945775"},"way_id":599518197}
{"request":{"street":"85 Mậu Lương, Kiến Hưng","latitude":"20.9567222","name":"Công Ty Cổ Phần Toàn Cầu Hải Linh","street_number":"85 Mậu Lương, Kiến Hưng","type":"114","longitude":"105.7944953"},"way_id":599518197}
{"request":{"street":"81 Mậu Lương, Kiến Hưng","latitude":"20.9567303","name":"Hương Vị Việt","street_number":"81 Mậu Lương, Kiến Hưng","type":"50","longitude":"105.7943698"},"way_id":599518197}
{"request":{"street":"87 Mậu Lương, Kiến Hưng","latitude":"20.9567198","name":"Game Center 87 Mậu Lương - Net Tám Xuân 07","street_number":"87 Mậu Lương, Kiến Hưng","type":"93","longitude":"105.7945699"},"way_id":599518197}
{"request":{"street":"24, Đường Mậu Lương, Phường Kiến Hưng, Quận Hà Đông, Kiến Hưng","latitude":"20.9568095","name":"Cửa Hàng Điện Gia Dụng Bao Hương","street_number":"24, Đường Mậu Lương, Phường Kiến Hưng, Quận Hà Đông, Kiến Hưng","type":"93","longitude":"105.7947058"},"way_id":599518197}
{"request":{"street":"79 Mậu Lương, Kiến Hưng","latitude":"20.9567369","name":"Nha Khoa An Du","street_number":"79 Mậu Lương, Kiến Hưng","type":"4","longitude":"105.7943055"},"way_id":599518197}
{"request":{"street":"7 Đa Sỹ, Kiến Hưng","latitude":"20.9567343","name":"Nha Khoa Thẩm Mỹ","street_number":"7 Đa Sỹ, Kiến Hưng","type":"4","longitude":"105.7942893"},"way_id":599518197}
{"request":{"street":"19, Tổ Dân Phố 11, Phường Kiến Hưng, Quận Hà Đông, Thành Phố Hà Nội, Thành Phố Hà Nội","latitude":"20.9567346","name":"Phòng Khám Răng Hàm Mặt 19","street_number":"19, Tổ Dân Phố 11, Phường Kiến Hưng, Quận Hà Đông, Thành Phố Hà Nội, Thành Phố Hà Nội","type":"4","longitude":"105.7942876"},"way_id":599518197}
{"request":{"street":"22 Đa Sỹ, Kiến Hưng","latitude":"20.9566729","name":"Cơ Sở Sản Xuất Bánh Mì Kiến Hưng","street_number":"22 Đa Sỹ, Kiến Hưng","type":"50","longitude":"105.7944872"},"way_id":599518197}
{"request":{"street":"8 Đa Sỹ, Kiến Hưng","latitude":"20.9567251","name":"Nhà Thuốc Quỳnh Hương","street_number":"8 Đa Sỹ, Kiến Hưng","type":"93","longitude":"105.7942885"},"way_id":599518197}
{"request":{"street":"81 Mậu Lương, Kiến Hưng","latitude":"20.9566549","name":"Phòng KD Tư Vấn Lucky House - Kiến Hưng","street_number":"81 Mậu Lương, Kiến Hưng","type":"114","longitude":"105.7944324"},"way_id":599518197}
{"request":{"street":"Đa Sỹ, Kiến Hưng","latitude":"20.9566405","name":"Nhà Thuốc Tân Dược","street_number":"Đa Sỹ, Kiến Hưng","type":"93","longitude":"105.7944560"},"way_id":599518197}
{"request":{"street":"83 Mậu Lương, Kiến Hưng","latitude":"20.9566324","name":"Game Center 83 Mậu Lương - Net Tám Xuân","street_number":"83 Mậu Lương, Kiến Hưng","type":"93","longitude":"105.7944525"},"way_id":599518197}
{"request":{"street":"undefined","latitude":"20.9578964","name":"Kho KOS","street_number":"undefined","type":"126","longitude":"105.7804545"},"way_id":599546940}
{"request":{"street":"undefined","latitude":"20.9579593","name":"Sưởng Gỗ Hải Anh","street_number":"undefined","type":"114","longitude":"105.7803439"},"way_id":599546940}
{"request":{"street":"undefined","latitude":"20.9580495","name":"Kho Kinh Đô","street_number":"undefined","type":"126","longitude":"105.7802447"},"way_id":599546940}
{"request":{"street":"undefined","latitude":"20.9578910","name":"Kho vali kéo hà nội kos hà cầu","street_number":"undefined","type":"114","longitude":"105.7804961"},"way_id":599546940}
{"request":{"street":"đường Phố Cầu Đơ, Kiến Hưng","latitude":"20.9578663","name":"Tổng kho vách vệ sinh compact - AID việt nam","street_number":"đường Phố Cầu Đơ, Kiến Hưng","type":"93","longitude":"105.7805214"},"way_id":599546940}
{"request":{"street":"khu liên hợp thể thao cây xanh sau sân bóng Cường, Quốc 2","latitude":"20.9577449","name":"Công ty TNHH MTV G-D Hà Nội","street_number":"khu liên hợp thể thao cây xanh sau sân bóng Cường, Quốc 2","type":"114","longitude":"105.7804413"},"way_id":599546940}
{"request":{"street":"undefined","latitude":"20.9577245","name":"Bảo Hộ Nam Bình","street_number":"undefined","type":"114","longitude":"105.7803684"},"way_id":599546940}
{"request":{"street":"Khu giao thương 365, Phố Tô Hiệu, Kiến Hưng","latitude":"20.9583623","name":"Xưởng PQH","street_number":"Khu giao thương 365, Phố Tô Hiệu, Kiến Hưng","type":"114","longitude":"105.7806031"},"way_id":599546940}
{"request":{"street":"Kiến Hưng","latitude":"20.9584795","name":"Công viên Hà Cầu","street_number":"Kiến Hưng","type":"54","longitude":"105.7802265"},"way_id":599546940}
{"request":{"street":"Khu Công Viên Cây Xanh","latitude":"20.9585668","name":"Nhà hàng Tre Viên Quán, Nhà hàng ngon tại Hà Đông Hà Nội, Quán ăn ngon tại Hà Đông Hà Nội","street_number":"Khu Công Viên Cây Xanh","type":"50","longitude":"105.7802961"},"way_id":599546940}
{"request":{"street":"Dịch vụ - Thể thao – Cây xanh, Khu, Lô CX-DV4","latitude":"20.9585978","name":"PHÚ QUANG HƯNG TECHNOLOGY JSC","street_number":"Dịch vụ - Thể thao – Cây xanh, Khu, Lô CX-DV4","type":"114","longitude":"105.7805552"},"way_id":599546940}
{"request":{"street":"undefined","latitude":"20.9586421","name":"PHÚ QUANG HƯNG","street_number":"undefined","type":"114","longitude":"105.7802778"},"way_id":599546940}
{"request":{"street":"undefined","latitude":"20.9576947","name":"kho vinatesco","street_number":"undefined","type":"114","longitude":"105.7809718"},"way_id":599546940}
{"request":{"street":"Khu thể thao - cây xanh Hà Đông, phường Hà Cầu, quận Hà Đông","latitude":"20.9581865","name":"Nhà hàng Tukibar","street_number":"Khu thể thao - cây xanh Hà Đông, phường Hà Cầu, quận Hà Đông","type":"50","longitude":"105.7796379"},"way_id":599546940}
{"request":{"street":"undefined","latitude":"20.9573462","name":"Nhà máy TLC LIGHTING","street_number":"undefined","type":"114","longitude":"105.7802212"},"way_id":599546940}
{"request":{"street":"undefined","latitude":"20.9572417","name":"NBC ECOM ( Nam Bình)","street_number":"undefined","type":"114","longitude":"105.7800281"},"way_id":599546940}
{"request":{"street":"Unnamed Road","latitude":"20.9571462","name":"Sân Bóng Gà Giò","street_number":"Unnamed Road","type":"4","longitude":"105.7804636"},"way_id":599546940}
{"request":{"street":"undefined","latitude":"20.9575197","name":"Xưởng Greenplus","street_number":"undefined","type":"114","longitude":"105.7813140"},"way_id":599546940}
{"request":{"street":"sân bóng việt pháp, Kiến Hưng","latitude":"20.9569874","name":"công ty bao bì hải anh - sân bóng việt pháp","street_number":"sân bóng việt pháp, Kiến Hưng","type":"114","longitude":"105.7803892"},"way_id":599546940}
{"request":{"street":"ADD: SỐ, 38 Mậu Lương, Kiến Hưng","latitude":"20.9570336","name":"quangcaoledviet","street_number":"ADD: SỐ, 38 Mậu Lương, Kiến Hưng","type":"114","longitude":"105.7913384"},"way_id":599536677}
{"request":{"street":"12 Đặng Tiến Đông, Kiến Hưng","latitude":"20.9567157","name":"GẠO TƯƠI --- gaotuoi.vn","street_number":"12 Đặng Tiến Đông, Kiến Hưng","type":"93","longitude":"105.7917041"},"way_id":599536677}
{"request":{"street":"137 Tổ 10 tp, Kiến Hưng","latitude":"20.9562686","name":"Công Ty Cổ Phần Công Nghệ CKT Việt Nam","street_number":"137 Tổ 10 tp, Kiến Hưng","type":"114","longitude":"105.7923491"},"way_id":599536677}
{"request":{"street":"Kiến Hưng","latitude":"20.9560557","name":"Công ty Cổ phần S.B Việt Nam","street_number":"Kiến Hưng","type":"114","longitude":"105.7920136"},"way_id":599536677}
{"request":{"street":"Số 32 Mậu Lương, Kiến Hưng","latitude":"20.9568995","name":"KYMDAN, EVERON ĐỨC THU","street_number":"Số 32 Mậu Lương, Kiến Hưng","type":"93","longitude":"105.7920302"},"way_id":599536677}
{"request":{"street":"Phố Hoàng Công, Kiến Hưng","latitude":"20.9562711","name":"Sân bóng Mậu Lương","street_number":"Phố Hoàng Công, Kiến Hưng","type":"114","longitude":"105.7935563"},"way_id":599536677}
{"request":{"street":"Lô 2 liền kề 2 khu đấu giá, Mậu Lương","latitude":"20.9554229","name":"Công ty TNHH PIENO VIỆT NAM","street_number":"Lô 2 liền kề 2 khu đấu giá, Mậu Lương","type":"93","longitude":"105.7931417"},"way_id":599536677}
{"request":{"street":"LK-240/DV 04, Hàng Bè, Khu đô thị Mậu Lương","latitude":"20.9551328","name":"ACE Jsc","street_number":"LK-240/DV 04, Hàng Bè, Khu đô thị Mậu Lương","type":"114","longitude":"105.7928237"},"way_id":599536677}
{"request":{"street":"Vietnam","latitude":"20.9564718","name":"Nội Thất Tuyển Hướng","street_number":"Vietnam","type":"93","longitude":"105.7920333"},"way_id":599536677}
{"request":{"street":"47 tổ 10 khu giãn dân, Mậu Lương","latitude":"20.9563687","name":"Nem Bùi Bắc Ninh","street_number":"47 tổ 10 khu giãn dân, Mậu Lương","type":"50","longitude":"105.7920282"},"way_id":599536677}
{"request":{"street":"21 Đa Sỹ, Kiến Hưng","latitude":"20.9565341","name":"Đại Lý Tạp Hóa Hà My","street_number":"21 Đa Sỹ, Kiến Hưng","type":"93","longitude":"105.7921324"},"way_id":599536677}
{"request":{"street":"16 Đa Sỹ, Kiến Hưng","latitude":"20.9565770","name":"Cửa Hàng Nhôm Thanh Đoàn Thắng","street_number":"16 Đa Sỹ, Kiến Hưng","type":"93","longitude":"105.7918547"},"way_id":599536677}
{"request":{"street":"38 Mậu Lương, Kiến Hưng","latitude":"20.9567432","name":"Quảng cáo ADMAX","street_number":"38 Mậu Lương, Kiến Hưng","type":"114","longitude":"105.7920675"},"way_id":599536677}
{"request":{"street":"30 Mậu Lương, Kiến Hưng","latitude":"20.9567253","name":"Mầm non Evergreen","street_number":"30 Mậu Lương, Kiến Hưng","type":"5","longitude":"105.7918690"},"way_id":599536677}
{"request":{"street":"111B Tổ 10 Khu dân cư mới, Mậu Lương, Kiến Hưng","latitude":"20.9563576","name":"Shop HTP","street_number":"111B Tổ 10 Khu dân cư mới, Mậu Lương, Kiến Hưng","type":"50","longitude":"105.7922714"},"way_id":599536677}
{"request":{"street":"36 Mậu Lương, Kiến Hưng","latitude":"20.9567521","name":"Bi-A CR9 Mậu Lương","street_number":"36 Mậu Lương, Kiến Hưng","type":"114","longitude":"105.7920173"},"way_id":599536677}
{"request":{"street":"50 Mậu Lương, Kiến Hưng","latitude":"20.9567600","name":"Cửa Hàng Xe Máy Hưng Xe Biển","street_number":"50 Mậu Lương, Kiến Hưng","type":"93","longitude":"105.7921000"},"way_id":599536677}
{"request":{"street":"Kiến Hưng","latitude":"20.9584268","name":"Mậu Lương","street_number":"Kiến Hưng","type":"114","longitude":"105.7945406"},"way_id":599536677}
{"request":{"street":"Hữu Hoà","latitude":"20.9459030","name":"Hữu Hoà","street_number":"Hữu Hoà","type":"2","longitude":"105.7967419"},"way_id":599197633}
{"request":{"street":"Khu Giãn Dân Mậu Lương, Hữu Hoà","latitude":"20.9561615","name":"Trường Mầm Non Mậu Lương - Cơ Sở 1","street_number":"Khu Giãn Dân Mậu Lương, Hữu Hoà","type":"5","longitude":"105.7955571"},"way_id":599197633}
{"request":{"street":"Mậu Lương, Kiến Hưng","latitude":"20.9561214","name":"Shop vinci","street_number":"Mậu Lương, Kiến Hưng","type":"93","longitude":"105.7953549"},"way_id":599197633}
{"request":{"street":"37, Tổ 9, Đường Mậu Lương, Phường Kiến Hưng, Quận Hà Đông, Hữu Hoà","latitude":"20.9561897","name":"Công Ty Trách Nhiệm Hữu Hạn Thương Mại Xây Dựng Hạ Tầng Quang Huy","street_number":"37, Tổ 9, Đường Mậu Lương, Phường Kiến Hưng, Quận Hà Đông, Hữu Hoà","type":"114","longitude":"105.7955718"},"way_id":599197633}
{"request":{"street":"45, Đường Mậu Lương, Phường Kiến Hưng, Quận Hà Đông, Kiến Hưng","latitude":"20.9562678","name":"Cửa Hàng Điện Thoại Mạnh Cường","street_number":"45, Đường Mậu Lương, Phường Kiến Hưng, Quận Hà Đông, Kiến Hưng","type":"93","longitude":"105.7955330"},"way_id":599197633}
{"request":{"street":"23, Đường Mậu Lương, Phường Kiến Hưng, Quận Hà Đông, Kiến Hưng","latitude":"20.9562794","name":"Tạp hóa Hà Thu","street_number":"23, Đường Mậu Lương, Phường Kiến Hưng, Quận Hà Đông, Kiến Hưng","type":"93","longitude":"105.7954339"},"way_id":599197633}
{"request":{"street":"4 Khu Giãn Dân Mậu Lương, Hữu Hoà","latitude":"20.9558891","name":"Công Ty Tnhh Thương Mại \u0026 Đầu Tư Nam Đô","street_number":"4 Khu Giãn Dân Mậu Lương, Hữu Hoà","type":"114","longitude":"105.7954699"},"way_id":599197633}
{"request":{"street":"39, Tổ 11, Đường Mậu Lương, Phường Kiến Hưng, Quận Hà Đông, Hữu Hoà","latitude":"20.9563417","name":"Cửa Hàng Vật Tư Ngành Nước Thắng Hoàn","street_number":"39, Tổ 11, Đường Mậu Lương, Phường Kiến Hưng, Quận Hà Đông, Hữu Hoà","type":"114","longitude":"105.7954405"},"way_id":599197633}
{"request":{"street":"139 Đường Liên Xã Thôn Hữu Lê, Tả Thanh Oai","latitude":"20.9563430","name":"Chiến thắng inverter","street_number":"139 Đường Liên Xã Thôn Hữu Lê, Tả Thanh Oai","type":"114","longitude":"105.7955140"},"way_id":599197633}
{"request":{"street":"Đa Sỹ, Kiến Hưng","latitude":"20.9562188","name":"Quán Phở Bò Nam Định","street_number":"Đa Sỹ, Kiến Hưng","type":"50","longitude":"105.7952454"},"way_id":599197633}
{"request":{"street":"112 Mậu Lương, Hữu Hoà","latitude":"20.9563953","name":"Nhà Thuốc Thắng Lan","street_number":"112 Mậu Lương, Hữu Hoà","type":"114","longitude":"105.7954441"},"way_id":599197633}
{"request":{"street":"116 Mậu Lương, Kiến Hưng","latitude":"20.9563994","name":"Đại Lý : Hoàng Hùng","street_number":"116 Mậu Lương, Kiến Hưng","type":"93","longitude":"105.7955320"},"way_id":599197633}
{"request":{"street":"112 Mậu Lương, Kiến Hưng","latitude":"20.9564080","name":"NILON HƯƠNG QUẾ","street_number":"112 Mậu Lương, Kiến Hưng","type":"93","longitude":"105.7954956"},"way_id":599197633}
{"request":{"street":"Mậu Lương, Kiến Hưng","latitude":"20.9563425","name":"Miếu Thành Hoàng Mậu Lương","street_number":"Mậu Lương, Kiến Hưng","type":"114","longitude":"105.7957203"},"way_id":599197633}
{"request":{"street":"53, Đường Mậu Lương, Phường Kiến Hưng, Quận Hà Đông, Hữu Hoà","latitude":"20.9561897","name":"Cửa Hàng Kim Khí Tổng Hợp Vinh Khanh","street_number":"53, Đường Mậu Lương, Phường Kiến Hưng, Quận Hà Đông, Hữu Hoà","type":"114","longitude":"105.7958293"},"way_id":599197633}
{"request":{"street":"Vietnam","latitude":"20.9563871","name":"Hoàng Trung Motor","street_number":"Vietnam","type":"114","longitude":"105.7956682"},"way_id":599197633}
{"request":{"street":"Kiến Hưng","latitude":"20.9564112","name":"Bia Hơi Tuấn Jô","street_number":"Kiến Hưng","type":"93","longitude":"105.7953323"},"way_id":599197633}
{"request":{"street":"Liền kề 21, lô sô 8, Khu đấu giá, đường Mậu Lương, Kiến Hưng","latitude":"20.9563951","name":"Bóng đá Fast - Tin tức bóng đá thể thao 24h nhanh nhất","street_number":"Liền kề 21, lô sô 8, Khu đấu giá, đường Mậu Lương, Kiến Hưng","type":"114","longitude":"105.7952821"},"way_id":599197633}
{"request":{"street":"Quang Trung","latitude":"20.9652675","name":"Quang Trung","street_number":"Quang Trung","type":"2","longitude":"105.7681278"},"way_id":687216053}
{"request":{"street":"undefined","latitude":"20.9737833","name":"Chung cư CT6 Văn Khê","street_number":"undefined","type":"114","longitude":"105.7640001"},"way_id":687216053}
{"request":{"street":"Khu đô thị Mỗ Lao, P.Mộ Lao, Q.Hà Đông, TP.Hà Nội","latitude":"20.9847221","name":"Trường THCS Mỗ Lao","street_number":"Khu đô thị Mỗ Lao, P.Mộ Lao, Q.Hà Đông, TP.Hà Nội","type":"5","longitude":"105.7832941"},"way_id":687216053}
{"request":{"street":"146 Trần Phú, P. Mộ Lao","latitude":"20.9760014","name":"AnVilla Hà Đông","street_number":"146 Trần Phú, P. Mộ Lao","type":"24","longitude":"105.7819370"},"way_id":687216053}
{"request":{"street":"Cầu Chùa Ngòi, Ngô Quyền, P. Quang Trung","latitude":"20.9712148","name":"Chùa Ngòi Hà Đông","street_number":"Cầu Chùa Ngòi, Ngô Quyền, P. Quang Trung","type":"118","longitude":"105.7670113"},"way_id":687216053}
{"request":{"street":"Vũ Trọng Khánh, P. Mộ Lao","latitude":"20.9783161","name":"Công Ty Cp Dịch Vụ Bảo Vệ Miền Bắc","street_number":"Vũ Trọng Khánh, P. Mộ Lao","type":"114","longitude":"105.7818884"},"way_id":687216053}
{"request":{"street":"B1 Lê Văn Lương kéo dài","latitude":"20.9826715","name":"Bất Động Sản Phát Lộc","street_number":"B1 Lê Văn Lương kéo dài","type":"114","longitude":"105.7707824"},"way_id":687216053}
{"request":{"street":"2 Tây Sơn, P. Yết Kiêu","latitude":"20.9745800","name":"Công Ty Cổ Phần Đầu Tư Đại Thiên Phúc","street_number":"2 Tây Sơn, P. Yết Kiêu","type":"114","longitude":"105.7769317"},"way_id":687216053}
{"request":{"street":"64 Phố Cầu Am, Vạn Phúc","latitude":"20.9788913","name":"Trạm Y tế phường Vạn Phúc","street_number":"64 Phố Cầu Am, Vạn Phúc","type":"4","longitude":"105.7751548"},"way_id":687216053}
{"request":{"street":"Tầng 5, Tòa nhà Simco-Sông Đà, Khu đô thị Vạn Phúc, phường Vạn Phúc, Hầ Đông, Vạn Phúc","latitude":"20.9821424","name":"Công ty Tự động hóa Sông Đà","street_number":"Tầng 5, Tòa nhà Simco-Sông Đà, Khu đô thị Vạn Phúc, phường Vạn Phúc, Hầ Đông, Vạn Phúc","type":"114","longitude":"105.7671716"},"way_id":687216053}
{"request":{"street":"Số 12, 70A, Vạn Phúc","latitude":"20.9808385","name":"Nha Khoa Vạn Phúc","street_number":"Số 12, 70A, Vạn Phúc","type":"4","longitude":"105.7717874"},"way_id":687216053}
{"request":{"street":"Đường Vạn Phúc, Vạn Phúc","latitude":"20.9765376","name":"Quỹ Tín Dụng Nhân Dân Trung Ương - Cn","street_number":"Đường Vạn Phúc, Vạn Phúc","type":"114","longitude":"105.7764616"},"way_id":687216053}
{"request":{"street":"undefined","latitude":"20.9767110","name":"CÔNG TY THIẾT KẾ IN ẤN ĐẤT VIỆT","street_number":"undefined","type":"114","longitude":"105.7758814"},"way_id":687216053}
{"request":{"street":"186 Đường Thanh Bình, P. Mộ Lao","latitude":"20.9824877","name":"Trung tâm Dưỡng lão Hà Nội","street_number":"186 Đường Thanh Bình, P. Mộ Lao","type":"4","longitude":"105.7783520"},"way_id":687216053}
{"request":{"street":"Phuong, Đường Vạn Phúc, Vạn Phúc","latitude":"20.9794270","name":"NUGAVANPHUC","street_number":"Phuong, Đường Vạn Phúc, Vạn Phúc","type":"114","longitude":"105.7725980"},"way_id":687216053}
{"request":{"street":"Đoàn Kết, Vạn Phúc","latitude":"20.9764820","name":"TNHH MTV Quảng Cáo \u0026 Nội Thất Tổng Hợp","street_number":"Đoàn Kết, Vạn Phúc","type":"114","longitude":"105.7764601"},"way_id":687216053}
{"request":{"street":"Tổ dân phố Độc Lập, Phường Vạn Phúc, Vạn Phúc","latitude":"20.9803220","name":"Công ty cổ phần công nghệ Thế Giới Phẳng","street_number":"Tổ dân phố Độc Lập, Phường Vạn Phúc, Vạn Phúc","type":"114","longitude":"105.7751540"},"way_id":687216053}
{"request":{"street":"Văn Quán","latitude":"20.9796446","name":"Văn Quán","street_number":"Văn Quán","type":"2","longitude":"105.7923394"},"way_id":687216053}
{"request":{"street":"66 Đường Vạn Phúc, Vạn Phúc","latitude":"20.9805259","name":"Siêu thị Thế Giới Di Động","street_number":"66 Đường Vạn Phúc, Vạn Phúc","type":"93","longitude":"105.7720316"},"way_id":596749902}
{"request":{"street":"Lô D12 Khu đấu giá QSĐ","latitude":"20.9813250","name":"Công ty TNHH Hãng Kiểm toán và Định giá ATC","street_number":"Lô D12 Khu đấu giá QSĐ","type":"114","longitude":"105.7723847"},"way_id":596749902}
{"request":{"street":"Lô D2, Lê Văn Tám, Vạn Phúc","latitude":"20.9816049","name":"Hawee Group","street_number":"Lô D2, Lê Văn Tám, Vạn Phúc","type":"114","longitude":"105.7721334"},"way_id":596749902}
{"request":{"street":"21, Cánh Kiến, Phường Vạn Phúc, Quận Hà Đông, Thành Phố Hà Nội, Vạn Phúc","latitude":"20.9808674","name":"Cửa Hàng Nội Thất Gỗ Đẹp Phương Nam","street_number":"21, Cánh Kiến, Phường Vạn Phúc, Quận Hà Đông, Thành Phố Hà Nội, Vạn Phúc","type":"93","longitude":"105.7715759"},"way_id":596749902}
{"request":{"street":"110 Đường Vạn Phúc, Vạn Phúc","latitude":"20.9809801","name":"Trung Tâm Trưng Bày \u0026 Bán Sản Phẩm Thiết Bị Vệ Sinh Thuận Phát","street_number":"110 Đường Vạn Phúc, Vạn Phúc","type":"93","longitude":"105.7715729"},"way_id":596749902}
{"request":{"street":"Vạn Phúc","latitude":"20.9816243","name":"Công Ty CP Hawee Năng Lượng","street_number":"Vạn Phúc","type":"114","longitude":"105.7720330"},"way_id":596749902}
{"request":{"street":"Phường Vạn Phúc, Quận Hà Đông, Vạn Phúc","latitude":"20.9815857","name":"Công Ty Xây Dựng Tín Phú","street_number":"Phường Vạn Phúc, Quận Hà Đông, Vạn Phúc","type":"114","longitude":"105.7717960"},"way_id":596749902}
{"request":{"street":"5 Ngách 10 Ngõ 81, TDP 10","latitude":"20.9796055","name":"Bông - Toysreview-TV","street_number":"5 Ngách 10 Ngõ 81, TDP 10","type":"93","longitude":"105.7724060"},"way_id":596749902}
{"request":{"street":"1 Đường Vạn Phúc, Vạn Phúc","latitude":"20.9795953","name":"Đại Lý Sơn Thành Trung","street_number":"1 Đường Vạn Phúc, Vạn Phúc","type":"93","longitude":"105.7723444"},"way_id":596749902}
{"request":{"street":"Ngõ 68, Vạn Phúc","latitude":"20.9807700","name":"Cửa Hàng Lan Việt","street_number":"Ngõ 68, Vạn Phúc","type":"13","longitude":"105.7725611"},"way_id":596749902}
{"request":{"street":"Kios 25 Ngõ 68, Vạn Phúc","latitude":"20.9808000","name":"Công Ty TNHH SX TM \u0026 XNKThái Dương","street_number":"Kios 25 Ngõ 68, Vạn Phúc","type":"93","longitude":"105.7726000"},"way_id":596749902}
{"request":{"street":"Ki Ốt 18, Khu Dịch Vụ Của HTX Dệt, Vạn Phúc, Quận Hà Đông, Thành Phố Hà Nội, Vạn Phúc","latitude":"20.9807850","name":"Hair Salon Ngọc Khanh","street_number":"Ki Ốt 18, Khu Dịch Vụ Của HTX Dệt, Vạn Phúc, Quận Hà Đông, Thành Phố Hà Nội, Vạn Phúc","type":"100","longitude":"105.7725300"},"way_id":596749902}
{"request":{"street":"Vietnam","latitude":"20.9807467","name":"Beauty Salon Hiến","street_number":"Vietnam","type":"114","longitude":"105.7726736"},"way_id":596749902}
{"request":{"street":"Kios 23 Ngõ 68, Vạn Phúc","latitude":"20.9807100","name":"Đại Lý Vé Máy Bay Vạn Phúc","street_number":"Kios 23 Ngõ 68, Vạn Phúc","type":"114","longitude":"105.7725000"},"way_id":596749902}
{"request":{"street":"Tổ Dân Phố Bạch Đằng, Phường Vạn Phúc, Quận Hà Đông, Thành Phố Hà Nội, Vạn Phúc","latitude":"20.9807550","name":"Cửa Hàng Tạp Hóa Tuấn Trang","street_number":"Tổ Dân Phố Bạch Đằng, Phường Vạn Phúc, Quận Hà Đông, Thành Phố Hà Nội, Vạn Phúc","type":"93","longitude":"105.7724760"},"way_id":596749902}
{"request":{"street":"54 Đường tỉnh 70A, Vạn Phúc","latitude":"20.9807257","name":"Vườn lan huy đô","street_number":"54 Đường tỉnh 70A, Vạn Phúc","type":"93","longitude":"105.7724574"},"way_id":596749902}
{"request":{"street":"Vạn Phúc","latitude":"20.9805148","name":"làng Vạn Phúc","street_number":"Vạn Phúc","type":"114","longitude":"105.7754643"},"way_id":596749902}
{"request":{"street":"Lk514-Dịch vụ 11, khu nhà Bè, Kiến Hưng","latitude":"20.9502821","name":"Bể hải sản-Hải sản Vugreen","street_number":"Lk514-Dịch vụ 11, khu nhà Bè, Kiến Hưng","type":"114","longitude":"105.7895644"},"way_id":595927269}
{"request":{"street":"LK495 DV10 Tổ 19","latitude":"20.9491599","name":"Dầu gội đen tóc Komi","street_number":"LK495 DV10 Tổ 19","type":"93","longitude":"105.7900231"},"way_id":595927269}
{"request":{"street":"Liền kề 495, Dịch vụ 10, Tổ 19","latitude":"20.9490084","name":"Shop Nội Thất Ô tô","street_number":"Liền kề 495, Dịch vụ 10, Tổ 19","type":"93","longitude":"105.7900262"},"way_id":595927269}
{"request":{"street":"Dịch vụ 22, liền kề 935, Khu đô thị Mậu Lương","latitude":"20.9485734","name":"Công Ty TNHH Kiến Trúc Xây Dựng Hưng Thịnh","street_number":"Dịch vụ 22, liền kề 935, Khu đô thị Mậu Lương","type":"114","longitude":"105.7900882"},"way_id":595927269}
{"request":{"street":"Lô 397 Dịch vụ 8 Đào Đất - Hàng Bè, Dịch vụ 10, Kiến Hưng","latitude":"20.9499563","name":"Dạy Trẻ Tự Kỷ","street_number":"Lô 397 Dịch vụ 8 Đào Đất - Hàng Bè, Dịch vụ 10, Kiến Hưng","type":"114","longitude":"105.7901953"},"way_id":595927269}
{"request":{"street":"Dịch Vụ 15 - Hàng Bè, Mậu Lương, Kiến Hưng","latitude":"20.9489840","name":"Thời trang OVY","street_number":"Dịch Vụ 15 - Hàng Bè, Mậu Lương, Kiến Hưng","type":"93","longitude":"105.7881496"},"way_id":595927269}
{"request":{"street":"undefined","latitude":"20.9467918","name":"Công ty CPĐTXD và DVTM Thăng Long","street_number":"undefined","type":"114","longitude":"105.7905816"},"way_id":595927269}
{"request":{"street":"Hữu Hoà","latitude":"20.9475861","name":"Nội thất hà đông","street_number":"Hữu Hoà","type":"114","longitude":"105.7928940"},"way_id":595927269}
{"request":{"street":"Tòa 19T1, Tầng 1, Khu đô thị","latitude":"20.9449243","name":"Co.op Food Hà Đông Lucky House - Siêu Thị Vũ Gia","street_number":"Tòa 19T1, Tầng 1, Khu đô thị","type":"93","longitude":"105.7897085"},"way_id":595927269}
{"request":{"street":"Dịch Vụ, Lô 358, 7 Mậu Lương, Kiến Hưng","latitude":"20.9490193","name":"Ông Trùm Electrolux","street_number":"Dịch Vụ, Lô 358, 7 Mậu Lương, Kiến Hưng","type":"93","longitude":"105.7897326"},"way_id":595927269}
{"request":{"street":"421 Dịch vụ 10, Kiến Hưng","latitude":"20.9489921","name":"Công Ty Tnhh Sản Xuất Và Thương Mại Thái Trung Coconut","street_number":"421 Dịch vụ 10, Kiến Hưng","type":"114","longitude":"105.7898946"},"way_id":595927269}
{"request":{"street":"Phố Hoàng Công, Kiến Hưng","latitude":"20.9490808","name":"Thuốc mọc tóc Kaminomoto","street_number":"Phố Hoàng Công, Kiến Hưng","type":"93","longitude":"105.7899941"},"way_id":595927269}
{"request":{"street":"Lk 497, Dịch vụ 10, Kiến Hưng","latitude":"20.9490240","name":"Trà Chanh Boo Tea","street_number":"Lk 497, Dịch vụ 10, Kiến Hưng","type":"52","longitude":"105.7900338"},"way_id":595927269}
{"request":{"street":"Lk495 DV10, Tổ 19, Khu đô thị Mậu Lương","latitude":"20.9490487","name":"Phim cách nhiệt Ô tô - Phimcachnhiet.net","street_number":"Lk495 DV10, Tổ 19, Khu đô thị Mậu Lương","type":"114","longitude":"105.7900345"},"way_id":595927269}
{"request":{"street":"LK495 DV10 Tổ 19, Khu đô thị Mậu Lương","latitude":"20.9491188","name":"Đồ chơi ô tô - Shopdochoioto.vn","street_number":"LK495 DV10 Tổ 19, Khu đô thị Mậu Lương","type":"114","longitude":"105.7900237"},"way_id":595927269}
{"request":{"street":"LK 487, DV10, Đào đất, Hàng Bè, Kiến Hưng","latitude":"20.9491834","name":"Công Ty Cổ Phần Cơ Điện Và Xây Dựng Hà Nội","street_number":"LK 487, DV10, Đào đất, Hàng Bè, Kiến Hưng","type":"114","longitude":"105.7900232"},"way_id":595927269}
{"request":{"street":"undefined","latitude":"20.9807575","name":"78-72 Phố Lụa","street_number":"undefined","type":"114","longitude":"105.7769072"},"way_id":684921432}
{"request":{"street":"Cổng Miếu, Phố Lụa, Phường Vạn Phúc, Quận Hà Đông, Vạn Phúc","latitude":"20.9806094","name":"Cửa Hàng Khung Nhôm Kính Thủy Nam","street_number":"Cổng Miếu, Phố Lụa, Phường Vạn Phúc, Quận Hà Đông, Vạn Phúc","type":"93","longitude":"105.7772573"},"way_id":684921432}
{"request":{"street":"Phố Lụa, Vạn Phúc","latitude":"20.9807455","name":"GD Electric - Tổng Đại Lý Thiết Bị Điện: Công Tơ Điện, Máy Biến Dòng Điện, Dây Điện","street_number":"Phố Lụa, Vạn Phúc","type":"93","longitude":"105.7771570"},"way_id":684921432}
{"request":{"street":"81 Phố Lụa, Vạn Phúc","latitude":"20.9806665","name":"Cửa Hàng Vàng Mã Mậu Thắng","street_number":"81 Phố Lụa, Vạn Phúc","type":"93","longitude":"105.7768604"},"way_id":684921432}
{"request":{"street":"Dịch Vụ 14, Đìa lão","latitude":"20.9485381","name":"Công ty kizuna","street_number":"Dịch Vụ 14, Đìa lão","type":"114","longitude":"105.7936352"},"way_id":599197622}
{"request":{"street":"Unnamed Road, Hữu Hoà","latitude":"20.9487152","name":"Công ty cổ phần dược ABO","street_number":"Unnamed Road, Hữu Hoà","type":"114","longitude":"105.7937496"},"way_id":599197622}
{"request":{"street":"Khu đô thị Mậu Lương","latitude":"20.9488364","name":"Công ty Cổ phần xây lắp cơ điện lạnh Trần Gia","street_number":"Khu đô thị Mậu Lương","type":"114","longitude":"105.7935692"},"way_id":599197622}
{"request":{"street":"Mậu Lương, Hữu Hoà","latitude":"20.9488907","name":"Hùng Bụi Quán","street_number":"Mậu Lương, Hữu Hoà","type":"50","longitude":"105.7939851"},"way_id":599197622}
{"request":{"street":"Khu đô thị Mậu Lương","latitude":"20.9484625","name":"Lk531 DV13","street_number":"Khu đô thị Mậu Lương","type":"114","longitude":"105.7932949"},"way_id":599197622}
{"request":{"street":"LK531-DV13 - Đìa Lão, Mậu Lương","latitude":"20.9484125","name":"Cty An Gia NPP cửa Austdoor","street_number":"LK531-DV13 - Đìa Lão, Mậu Lương","type":"93","longitude":"105.7932651"},"way_id":599197622}
{"request":{"street":"Unnamed Road, Hữu Hòa, Hữu Hoà","latitude":"20.9489159","name":"Chill","street_number":"Unnamed Road, Hữu Hòa, Hữu Hoà","type":"50","longitude":"105.7941180"},"way_id":599197622}
{"request":{"street":"Dịch vụ 13 liền kề 538 địa lão, Kiến Hưng","latitude":"20.9481865","name":"Học Viện Phong Thuỷ YangYin","street_number":"Dịch vụ 13 liền kề 538 địa lão, Kiến Hưng","type":"114","longitude":"105.7932035"},"way_id":599197622}
{"request":{"street":"Vietnam","latitude":"20.9486504","name":"Design Led","street_number":"Vietnam","type":"93","longitude":"105.7931059"},"way_id":599197622}
{"request":{"street":"Khu đô thị Mậu Lương","latitude":"20.9479977","name":"Công ty TNHH -TM-DV \u0026 SX nước tinh khiết Anh Vôn","street_number":"Khu đô thị Mậu Lương","type":"114","longitude":"105.7933604"},"way_id":599197622}
{"request":{"street":"Số 70 đường Phố Lụa, Vạn Phúc","latitude":"20.9807692","name":"Công ty TNHH Đầu tư xây dựng và Thiết kế Thái Anh","street_number":"Số 70 đường Phố Lụa, Vạn Phúc","type":"114","longitude":"105.7768182"},"way_id":684921421}
{"request":{"street":"Lô 18, Thôn Mậu Lương, Phường Kiến Hưng, Quận Hà Đông, Kiến Hưng","latitude":"20.9578570","name":"Cửa Hàng Sơn Minh Thành","street_number":"Lô 18, Thôn Mậu Lương, Phường Kiến Hưng, Quận Hà Đông, Kiến Hưng","type":"114","longitude":"105.7919545"},"way_id":599536656}
{"request":{"street":"54 Mậu Lương, Kiến Hưng","latitude":"20.9577915","name":"HADU Store - Thế Giới Giày Nữ Đẹp - Giày VNXK","street_number":"54 Mậu Lương, Kiến Hưng","type":"93","longitude":"105.7920601"},"way_id":599536656}
{"request":{"street":"Mậu Lương","latitude":"20.9583385","name":"Tạp hóa 185","street_number":"Mậu Lương","type":"93","longitude":"105.7922766"},"way_id":599536656}
{"request":{"street":"Số 129, Ngõ 57, Tổ 9, Kiến Hưng, Hà Đông, Kiến Hưng","latitude":"20.9577410","name":"Cửa hàng Xedapchotreem","street_number":"Số 129, Ngõ 57, Tổ 9, Kiến Hưng, Hà Đông, Kiến Hưng","type":"93","longitude":"105.7920210"},"way_id":599536656}
{"request":{"street":"undefined","latitude":"20.9789583","name":"Phố Cầu Am","street_number":"undefined","type":"114","longitude":"105.7749819"},"way_id":684922994}
{"request":{"street":"64 Phố Cầu Am, Vạn Phúc","latitude":"20.9786810","name":"Tiệm Bạc Ngọc Long","street_number":"64 Phố Cầu Am, Vạn Phúc","type":"93","longitude":"105.7753445"},"way_id":684922994}
{"request":{"street":"Tầng 1, số nhà 8, khối 7, phường Vạn Phúc, Hà Đông, Vạn Phúc","latitude":"20.9790657","name":"CÔNG TY CỔ PHẦN THƯƠNG MẠI TRỰC TUYẾN VINASOC","street_number":"Tầng 1, số nhà 8, khối 7, phường Vạn Phúc, Hà Đông, Vạn Phúc","type":"114","longitude":"105.7754643"},"way_id":684922994}
{"request":{"street":"101, Chợ Vạn Phúc, Quận Hà Đông, Thành Phố Hà Nội, Vạn Phúc","latitude":"20.9787120","name":"Cửa Hàng Chăn Ga Gối Đệm Thắng Vịnh","street_number":"101, Chợ Vạn Phúc, Quận Hà Đông, Thành Phố Hà Nội, Vạn Phúc","type":"93","longitude":"105.7752460"},"way_id":684922994}
{"request":{"street":"undefined","latitude":"20.9786970","name":"Vạn Phúc GYM CENTER","street_number":"undefined","type":"4","longitude":"105.7753258"},"way_id":684922994}
{"request":{"street":"Khối Quyết tiến - P Vạn Phúc, Phường Vạn Phúc, Vạn Phúc","latitude":"20.9786910","name":"Công ty TNHH Tư vấn đầu tư xây dựng điện lực","street_number":"Khối Quyết tiến - P Vạn Phúc, Phường Vạn Phúc, Vạn Phúc","type":"114","longitude":"105.7753050"},"way_id":684922994}
{"request":{"street":"64 Phố Cầu Am, Vạn Phúc","latitude":"20.9786811","name":"Nhà Văn Hóa Quyết Thắng","street_number":"64 Phố Cầu Am, Vạn Phúc","type":"114","longitude":"105.7753446"},"way_id":684922994}
{"request":{"street":"66 Phố Cầu Am, Vạn Phúc","latitude":"20.9786941","name":"Nhà May Thúy","street_number":"66 Phố Cầu Am, Vạn Phúc","type":"93","longitude":"105.7751880"},"way_id":684922994}
{"request":{"street":"64 Phố Cầu Am, Vạn Phúc","latitude":"20.9786341","name":"Shop Thời Trang Sinh Tài","street_number":"64 Phố Cầu Am, Vạn Phúc","type":"93","longitude":"105.7753682"},"way_id":684922994}
{"request":{"street":"106 Phố Cầu Am, Vạn Phúc","latitude":"20.9788663","name":"Cửa Hàng Hoa Quả Bình Lê","street_number":"106 Phố Cầu Am, Vạn Phúc","type":"93","longitude":"105.7750422"},"way_id":684922994}
{"request":{"street":"64 Phố Cầu Am, Vạn Phúc","latitude":"20.9785808","name":"Công Ty Tnhh Phyzic Việt Nam","street_number":"64 Phố Cầu Am, Vạn Phúc","type":"114","longitude":"105.7753265"},"way_id":684922994}
{"request":{"street":"undefined","latitude":"20.9783793","name":"89-85 Ngô Thì Sỹ","street_number":"undefined","type":"114","longitude":"105.7793020"},"way_id":684918826}
{"request":{"street":"Vạn Phúc","latitude":"20.9784506","name":"Phục Hồi Sức Khỏe","street_number":"Vạn Phúc","type":"93","longitude":"105.7791138"},"way_id":684918826}
{"request":{"street":"Ngô Thì Sỹ, Vạn Phúc","latitude":"20.9782130","name":"Sản xuất balo học sinh tại VietBags.Net","street_number":"Ngô Thì Sỹ, Vạn Phúc","type":"93","longitude":"105.7791050"},"way_id":684918826}
{"request":{"street":"Ngô Thì Sỹ, Vạn Phúc","latitude":"20.9784495","name":"Hikaru VN","street_number":"Ngô Thì Sỹ, Vạn Phúc","type":"114","longitude":"105.7792340"},"way_id":684918826}
{"request":{"street":"K6, Vạn Phúc","latitude":"20.9781041","name":"Xưởng Balo Trọng Phát","street_number":"K6, Vạn Phúc","type":"93","longitude":"105.7790890"},"way_id":684918826}
{"request":{"street":"35 Ngô Thì Sỹ, Vạn Phúc","latitude":"20.9784421","name":"Công Ty Tnhh Giải Pháp An Toàn Lao Động","street_number":"35 Ngô Thì Sỹ, Vạn Phúc","type":"114","longitude":"105.7792951"},"way_id":684918826}
{"request":{"street":"83 Ngô Thì Sỹ, Vạn Phúc","latitude":"20.9781142","name":"Dịch vụ-Giải pháp cho Khách hàng Doanh nghiệp VNPT VINAPHONE","street_number":"83 Ngô Thì Sỹ, Vạn Phúc","type":"114","longitude":"105.7792939"},"way_id":684918826}
{"request":{"street":"83 Ngô Thì Sỹ, Vạn Phúc","latitude":"20.9780820","name":"Xưởng sỉ balo thời trang BAGGU.CLUB","street_number":"83 Ngô Thì Sỹ, Vạn Phúc","type":"93","longitude":"105.7792400"},"way_id":684918826}
{"request":{"street":"91/8 Ngô Thì Sỹ, Vạn Phúc","latitude":"20.9784815","name":"Công Ty Cổ Phần Bất Động Sản Insight","street_number":"91/8 Ngô Thì Sỹ, Vạn Phúc","type":"114","longitude":"105.7792877"},"way_id":684918826}
{"request":{"street":"Unnamed Road","latitude":"20.9562642","name":"showroom cicohome","street_number":"Unnamed Road","type":"93","longitude":"105.7839734"},"way_id":682982638}
{"request":{"street":"LK168 ĐG04, Kiến Hưng, Kiến Hưng","latitude":"20.9562654","name":"CICOHOME","street_number":"LK168 ĐG04, Kiến Hưng, Kiến Hưng","type":"13","longitude":"105.7839873"},"way_id":682982638}
{"request":{"street":"Vietnam","latitude":"20.9563892","name":"Văn Phòng Giao Dịch Bất Động Sản Hvc Land","street_number":"Vietnam","type":"114","longitude":"105.7838749"},"way_id":682982638}
{"request":{"street":"Vietnam","latitude":"20.9563913","name":"Bất Động Sản Lyna","street_number":"Vietnam","type":"114","longitude":"105.7840200"},"way_id":682982638}
{"request":{"street":"Unnamed Road","latitude":"20.9563735","name":"Cửa hàng Dao Kéo Lập Lịch","street_number":"Unnamed Road","type":"93","longitude":"105.7835957"},"way_id":682982638}
{"request":{"street":"Vietnam","latitude":"20.9564123","name":"Cảnh Hồng Nhà Đất","street_number":"Vietnam","type":"114","longitude":"105.7841252"},"way_id":682982638}
{"request":{"street":"Lô DG12_17 khu đấu giá QSD đất tái định cư","latitude":"20.9563030","name":"Đông Trùng Hạ Thảo An Thọ Khang","street_number":"Lô DG12_17 khu đấu giá QSD đất tái định cư","type":"93","longitude":"105.7842497"},"way_id":682982638}
{"request":{"street":"Kiến Hưng","latitude":"20.9592584","name":"Đa Sỹ","street_number":"Kiến Hưng","type":"114","longitude":"105.7857359"},"way_id":682982638}
{"request":{"street":"undefined","latitude":"20.9781727","name":"85-83 Ngô Thì Sỹ","street_number":"undefined","type":"114","longitude":"105.7793236"},"way_id":684918825}
{"request":{"street":"Ngõ 81 Ngô Thì Sỹ, làng Vạn Phúc","latitude":"20.9779217","name":"Xưởng may balo túi xách Trọng Phát","street_number":"Ngõ 81 Ngô Thì Sỹ, làng Vạn Phúc","type":"114","longitude":"105.7791691"},"way_id":684918825}
{"request":{"street":"81 Ngô Thì Sỹ, Vạn Phúc, Hà Đông, Hà Nội, 79 Ngô Thì Sỹ, Vạn Phúc, Hà Đông, Hà Nội","latitude":"20.9778730","name":"MAY BALO TÚI XÁCH TRỌNG PHÁT","street_number":"81 Ngô Thì Sỹ, Vạn Phúc, Hà Đông, Hà Nội, 79 Ngô Thì Sỹ, Vạn Phúc, Hà Đông, Hà Nội","type":"93","longitude":"105.7791990"},"way_id":684918825}
{"request":{"street":"Vietnam","latitude":"20.9564161","name":"Đồ Gỗ Nội Thất 34","street_number":"Vietnam","type":"93","longitude":"105.7856836"},"way_id":682982639}
{"request":{"street":"Unnamed Road","latitude":"20.9565037","name":"Quán Bia Hơi Giang Còi","street_number":"Unnamed Road","type":"50","longitude":"105.7857355"},"way_id":682982639}
{"request":{"street":"Tầng 6 58 lên, Lê Văn Thiêm, Kiến Hưng","latitude":"20.9558010","name":"Công ty zioncom - chi nhánh hà nội","street_number":"Tầng 6 58 lên, Lê Văn Thiêm, Kiến Hưng","type":"114","longitude":"105.7857450"},"way_id":682982639}
{"request":{"street":"Unnamed Road","latitude":"20.9565432","name":"Minh Ni","street_number":"Unnamed Road","type":"114","longitude":"105.7864749"},"way_id":682982639}
{"request":{"street":"tổ 7 Đa Sỹ, Kiến Hưng","latitude":"20.9566430","name":"Bán Dao Kéo Đa Sỹ Hoàng Tùng Chính Gốc","street_number":"tổ 7 Đa Sỹ, Kiến Hưng","type":"93","longitude":"105.7855906"},"way_id":682982639}
{"request":{"street":"Vietnam","latitude":"20.9567940","name":"Bồi Loan Giặt Ướt Là Hơi","street_number":"Vietnam","type":"114","longitude":"105.7861224"},"way_id":682982639}
{"request":{"street":"Unnamed Road, Đa Sỹ","latitude":"20.9568319","name":"Lê Thắng","street_number":"Unnamed Road, Đa Sỹ","type":"103","longitude":"105.7858465"},"way_id":682982639}
{"request":{"street":"Sport and green park complex, Kien Hung ward, Ha Dong district","latitude":"20.9594737","name":"Vietnam Manpower Supply \u0026 Commercial ., JSC","street_number":"Sport and green park complex, Kien Hung ward, Ha Dong district","type":"114","longitude":"105.7802777"},"way_id":599546973}
{"request":{"street":"Kiến Hưng, Kiến Hưng","latitude":"20.9588474","name":"Sân Bóng Cường Quốc 2","street_number":"Kiến Hưng, Kiến Hưng","type":"114","longitude":"105.7811783"},"way_id":599546973}
{"request":{"street":"Khu đô thị","latitude":"20.9590880","name":"VietGoal Trung tâm Hà Đông","street_number":"Khu đô thị","type":"4","longitude":"105.7814019"},"way_id":599546973}
{"request":{"street":"undefined","latitude":"20.9517833","name":"Nghĩa trang Mậu Lương","street_number":"undefined","type":"72","longitude":"105.7926076"},"way_id":599192289}
{"request":{"street":"undefined","latitude":"20.9518114","name":"Nghĩa Trang Nhân Dân Mậu Lương","street_number":"undefined","type":"72","longitude":"105.7925070"},"way_id":599192289}
{"request":{"street":"P607 Toà M3 Chung Cư Mipec","latitude":"20.9508303","name":"Cửa Hàng Xách Tay Đức - Doraemon Shop","street_number":"P607 Toà M3 Chung Cư Mipec","type":"93","longitude":"105.7925919"},"way_id":599192289}
{"request":{"street":"Unnamed Road, Kiến Hưng","latitude":"20.9506324","name":"M6 Mipec City View","street_number":"Unnamed Road, Kiến Hưng","type":"114","longitude":"105.7930378"},"way_id":599192289}
{"request":{"street":"Phố Hoàng Công, Kiến Hưng","latitude":"20.9510012","name":"Mipec Kiến Hưng Hà Đông","street_number":"Phố Hoàng Công, Kiến Hưng","type":"114","longitude":"105.7923089"},"way_id":599192289}
{"request":{"street":"Kiến Hưng","latitude":"20.9507626","name":"Amazing Garden","street_number":"Kiến Hưng","type":"5","longitude":"105.7939588"},"way_id":599192289}
{"request":{"street":"N3-SH21, Mipec City View, 120 Phố Hoàng Công, Kiến Hưng","latitude":"20.9505766","name":"FAMILY CLUB__Cafe Bóng Đá - Trà Sữa - Trà Chanh__MIPEC - SH21","street_number":"N3-SH21, Mipec City View, 120 Phố Hoàng Công, Kiến Hưng","type":"115","longitude":"105.7937157"},"way_id":599192289}
{"request":{"street":"Kiến Hưng","latitude":"20.9511415","name":"Home Coca","street_number":"Kiến Hưng","type":"114","longitude":"105.7920990"},"way_id":599192289}
{"request":{"street":"Unnamed Road","latitude":"20.9504830","name":"Chung Cư Mipec Kiến Hưng","street_number":"Unnamed Road","type":"114","longitude":"105.7929052"},"way_id":599192289}
{"request":{"street":"Mipec city view, Kiến Hưng","latitude":"20.9508124","name":"Nha anh","street_number":"Mipec city view, Kiến Hưng","type":"114","longitude":"105.7922891"},"way_id":599192289}
{"request":{"street":"LK110, Dịch vụ 03, Khu đô thị Mậu Lương","latitude":"20.9509082","name":"G.farm- Dịch vụ sân \u0026 Rau xanh đô thị","street_number":"LK110, Dịch vụ 03, Khu đô thị Mậu Lương","type":"54","longitude":"105.7921466"},"way_id":599192289}
{"request":{"street":"undefined","latitude":"20.9522090","name":"Nghĩa trang thôn Mậu Lương","street_number":"undefined","type":"72","longitude":"105.7932566"},"way_id":599192289}
{"request":{"street":"undefined","latitude":"20.9817344","name":"49-37 Ng. 31 Phố Lụa","street_number":"undefined","type":"114","longitude":"105.7736042"},"way_id":675323299}
{"request":{"street":"Nhà 03, ngách 31/34 ( ngõ 31, Phố Lụa, Vạn Phúc","latitude":"20.9816891","name":"Chè Dừa COCO Vạn Phúc","street_number":"Nhà 03, ngách 31/34 ( ngõ 31, Phố Lụa, Vạn Phúc","type":"50","longitude":"105.7737614"},"way_id":675323299}
{"request":{"street":"Vietnam","latitude":"20.9814522","name":"Nhà Nghỉ Hương Trà","street_number":"Vietnam","type":"24","longitude":"105.7737719"},"way_id":675323299}
{"request":{"street":"Vietnam","latitude":"20.9817750","name":"Mạnh Hù Sửa Chữ Đồ Điện Dân Dụng","street_number":"Vietnam","type":"93","longitude":"105.7738135"},"way_id":675323299}
{"request":{"street":"SỐ 23 Ngõ 68, Vạn Phúc","latitude":"20.9813936","name":"Uniqlo","street_number":"SỐ 23 Ngõ 68, Vạn Phúc","type":"93","longitude":"105.7736979"},"way_id":675323299}
{"request":{"street":"undefined","latitude":"20.9813670","name":"Nhà nghỉ Vạn Phúc","street_number":"undefined","type":"24","longitude":"105.7737021"},"way_id":675323299}
{"request":{"street":"Ngõ 68, Vạn Phúc","latitude":"20.9813541","name":"Chè đồ ăn vặt bà Béo","street_number":"Ngõ 68, Vạn Phúc","type":"50","longitude":"105.7736887"},"way_id":675323299}
{"request":{"street":"Ngõ 31 Phố Lụa, Vạn Phúc","latitude":"20.9813594","name":"Cửa hàng vinaphone Vạn Phúc","street_number":"Ngõ 31 Phố Lụa, Vạn Phúc","type":"114","longitude":"105.7737663"},"way_id":675323299}
{"request":{"street":"Vietnam","latitude":"20.9812520","name":"Huy Design","street_number":"Vietnam","type":"114","longitude":"105.7735075"},"way_id":675323299}
{"request":{"street":"Vietnam","latitude":"20.9813150","name":"Hiệp Kim","street_number":"Vietnam","type":"114","longitude":"105.7739257"},"way_id":675323299}
{"request":{"street":"12 Ngõ 68, Vạn Phúc","latitude":"20.9812180","name":"Salon huy design","street_number":"12 Ngõ 68, Vạn Phúc","type":"93","longitude":"105.7735328"},"way_id":675323299}
{"request":{"street":"Ki ốt 10, Ngõ 68, Vạn Phúc","latitude":"20.9811623","name":"BÚN ĐẬU MẸT HỒNG HẠNH","street_number":"Ki ốt 10, Ngõ 68, Vạn Phúc","type":"50","longitude":"105.7734164"},"way_id":675323299}
{"request":{"street":"Số 110","latitude":"20.9818850","name":"Công ty TNHH P2A Việt Nam","street_number":"Số 110","type":"114","longitude":"105.7741080"},"way_id":675323299}
{"request":{"street":"Phố Hoàng Công, Kiến Hưng","latitude":"20.9520638","name":"Tiệm cắt tóc nam Lam Tuấn","street_number":"Phố Hoàng Công, Kiến Hưng","type":"4","longitude":"105.7916393"},"way_id":599192287}
{"request":{"street":"undefined","latitude":"20.9524315","name":"Vườn Dưa Lưới Sạch","street_number":"undefined","type":"114","longitude":"105.7921738"},"way_id":599192287}
{"request":{"street":"khu Dịch Vụ 1, xa la","latitude":"20.9517804","name":"Công ty Cổ phần đầu tư xây dựng Hợp Lực Thăng Long","street_number":"khu Dịch Vụ 1, xa la","type":"114","longitude":"105.7915002"},"way_id":599192287}
{"request":{"street":"ĐD Khu NƠ gia đình quân đội Bộ quốc phòng","latitude":"20.9511399","name":"Phụ Kiện Bổ Rẻ - Tai Nghe airpord - cáp sạc giá rẻ","street_number":"ĐD Khu NƠ gia đình quân đội Bộ quốc phòng","type":"93","longitude":"105.7917678"},"way_id":599192287}
{"request":{"street":"undefined","latitude":"20.9833911","name":"Kim Đồng","street_number":"undefined","type":"114","longitude":"105.7742677"},"way_id":675481715}
{"request":{"street":"undefined","latitude":"20.9837702","name":"Cửa Hàng Đồ Cổ Hoàng Giáp","street_number":"undefined","type":"93","longitude":"105.7746467"},"way_id":675481715}
{"request":{"street":"Khu Làng Nghề, Vạn Phúc","latitude":"20.9838500","name":"Cửa Hàng Đồ Cổ Gốm Việt","street_number":"Khu Làng Nghề, Vạn Phúc","type":"93","longitude":"105.7745634"},"way_id":675481715}
{"request":{"street":"Khu Làng Nghề","latitude":"20.9838313","name":"Nhà Sưu Tầm Lê Minh","street_number":"Khu Làng Nghề","type":"93","longitude":"105.7745097"},"way_id":675481715}
{"request":{"street":"Chợ Đồ Cũ","latitude":"20.9835300","name":"Cửa Hàng Mỹ Thuật Nhuệ Anh","street_number":"Chợ Đồ Cũ","type":"93","longitude":"105.7746000"},"way_id":675481715}
{"request":{"street":"Chợ Đồ Cũ","latitude":"20.9838100","name":"Cửa Hàng Đồ Cổ Châu Âu Trường Thịnh","street_number":"Chợ Đồ Cũ","type":"93","longitude":"105.7744000"},"way_id":675481715}
{"request":{"street":"undefined","latitude":"20.9835245","name":"KIM VINTAGE - ĐỒ XƯA","street_number":"undefined","type":"93","longitude":"105.7745842"},"way_id":675481715}
{"request":{"street":"Chợ Đồ Cũ","latitude":"20.9835200","name":"Cửa Hàng Đồ Cổ Quân Giang","street_number":"Chợ Đồ Cũ","type":"93","longitude":"105.7746000"},"way_id":675481715}
{"request":{"street":"Vạn Phúc","latitude":"20.9838265","name":"Cửa hàng đồ gỗ Tùng Lâm","street_number":"Vạn Phúc","type":"93","longitude":"105.7743398"},"way_id":675481715}
{"request":{"street":"Vietnam","latitude":"20.9840257","name":"Phủ Quán Food \u0026 Drink","street_number":"Vietnam","type":"50","longitude":"105.7746292"},"way_id":675481715}
{"request":{"street":"Tố Hữu, Vạn Phúc","latitude":"20.9840691","name":"Bàn thờ đẹp Gia An","street_number":"Tố Hữu, Vạn Phúc","type":"114","longitude":"105.7746988"},"way_id":675481715}
{"request":{"street":"Tố Hữu, Vạn Phúc","latitude":"20.9835972","name":"Thế giới tượng gỗ phong thủy Đỗ Phủ","street_number":"Tố Hữu, Vạn Phúc","type":"114","longitude":"105.7742665"},"way_id":675481715}
{"request":{"street":"Unnamed Road, Vạn Phúc","latitude":"20.9837151","name":"Người Buôn Ký Ức","street_number":"Unnamed Road, Vạn Phúc","type":"93","longitude":"105.7742265"},"way_id":675481715}
{"request":{"street":"Đường 430, Phường Vạn Phúc, Quận Hà Đông, Tỉnh Hà Tây","latitude":"20.9833792","name":"Nhà Máy Nhựa Vĩnh Hạnh","street_number":"Đường 430, Phường Vạn Phúc, Quận Hà Đông, Tỉnh Hà Tây","type":"114","longitude":"105.7745640"},"way_id":675481715}
{"request":{"street":"19T1, khu đô thị","latitude":"20.9444649","name":"DẦU HÚNG CHANH MIRI KIDS","street_number":"19T1, khu đô thị","type":"93","longitude":"105.7895236"},"way_id":707449226}
{"request":{"street":"Phố Hoàng Công, Kiến Hưng","latitude":"20.9442152","name":"QUOC WIFI","street_number":"Phố Hoàng Công, Kiến Hưng","type":"93","longitude":"105.7894953"},"way_id":707449226}
{"request":{"street":"Phố Hoàng Công, Kiến Hưng","latitude":"20.9445579","name":"Lucky House - Tòa 19T1 Chung Cư Kiến Hưng, Hà Đông, Hà Nội","street_number":"Phố Hoàng Công, Kiến Hưng","type":"93","longitude":"105.7896093"},"way_id":707449226}
{"request":{"street":"19T1 Kiến Hưng, Kiến Hưng","latitude":"20.9445557","name":"MỸ NGHỆ BÍCH NGỌC","street_number":"19T1 Kiến Hưng, Kiến Hưng","type":"93","longitude":"105.7896199"},"way_id":707449226}
{"request":{"street":"Phố Hoàng Công, Kiến Hưng","latitude":"20.9448870","name":"Nhà Bác Bằng","street_number":"Phố Hoàng Công, Kiến Hưng","type":"114","longitude":"105.7894600"},"way_id":707449226}
{"request":{"street":"Hữu Hòa, Kiến Hưng","latitude":"20.9445229","name":"Chung cư 19T1 Kiến Hưng, Mậu Lương, Hà Đông - Thietbisieuthinhanh.vn","street_number":"Hữu Hòa, Kiến Hưng","type":"114","longitude":"105.7898610"},"way_id":707449226}
{"request":{"street":"Phố Hoàng Công, Kiến Hưng","latitude":"20.9446292","name":"Shop Quý Ông - Shop sinh lý chính hãng","street_number":"Phố Hoàng Công, Kiến Hưng","type":"114","longitude":"105.7899034"},"way_id":707449226}
{"request":{"street":"toà 19t1","latitude":"20.9451066","name":"công ty tnhh đầu tư thương mại dịch vụ vận tải thành hưng","street_number":"toà 19t1","type":"114","longitude":"105.7895375"},"way_id":707449226}
{"request":{"street":"Phố Hoàng Công, Kiến Hưng","latitude":"20.9440720","name":"19T1 KĐT Kiến Hưng","street_number":"Phố Hoàng Công, Kiến Hưng","type":"93","longitude":"105.7898735"},"way_id":707449226}
{"request":{"street":"Phố Hoàng Công, Kiến Hưng","latitude":"20.9445285","name":"Nhà A Hạnh","street_number":"Phố Hoàng Công, Kiến Hưng","type":"114","longitude":"105.7900485"},"way_id":707449226}
{"request":{"street":"Khu đô thị Mậu Lương","latitude":"20.9449095","name":"Salon QT Forever","street_number":"Khu đô thị Mậu Lương","type":"93","longitude":"105.7901356"},"way_id":707449226}
{"request":{"street":"DG 05-06, khu đấu giá","latitude":"20.9448887","name":"Anh Ngữ Đỗ Nga","street_number":"DG 05-06, khu đấu giá","type":"5","longitude":"105.7901604"},"way_id":707449226}
{"request":{"street":"Mậu Lương","latitude":"20.9449791","name":"HANDO575","street_number":"Mậu Lương","type":"93","longitude":"105.7901350"},"way_id":707449226}
{"request":{"street":"Chung Cư The Lucky House","latitude":"20.9435966","name":"Văn phòng Shop Quý Ông","street_number":"Chung Cư The Lucky House","type":"114","longitude":"105.7897517"},"way_id":707449226}
{"request":{"street":"Unnamed, Quốc lộ 5, Kiến Hưng","latitude":"20.9451200","name":"Kho hàng cty điện Hoàng An","street_number":"Unnamed, Quốc lộ 5, Kiến Hưng","type":"114","longitude":"105.7901041"},"way_id":707449226}
{"request":{"street":"Kđt","latitude":"20.9435781","name":"Trạm bê tông Vinaconex 21","street_number":"Kđt","type":"93","longitude":"105.7900870"},"way_id":707449226}
{"request":{"street":"Khu đô thị Mậu Lương","latitude":"20.9455427","name":"Thầy Link Chuyên Toán","street_number":"Khu đô thị Mậu Lương","type":"5","longitude":"105.7900485"},"way_id":707449226}
{"request":{"street":"Kiến Hưng","latitude":"20.9471125","name":"Khu đô thị Mậu Lương","street_number":"Kiến Hưng","type":"114","longitude":"105.7916057"},"way_id":707449226}
{"request":{"street":"undefined","latitude":"20.9776203","name":"38-52 Phố Cầu Am","street_number":"undefined","type":"114","longitude":"105.7757312"},"way_id":684923016}
{"request":{"street":"Vietnam","latitude":"20.9774985","name":"Đại Lý Túi Nilon Các Loại","street_number":"Vietnam","type":"93","longitude":"105.7759813"},"way_id":684923016}
{"request":{"street":"38 Phố Cầu Am, Vạn Phúc","latitude":"20.9774558","name":"Công Ty Thang Máy Tải Khách Mitsubishi Gia Đình Mini","street_number":"38 Phố Cầu Am, Vạn Phúc","type":"114","longitude":"105.7760245"},"way_id":684923016}
{"request":{"street":"Số 2 Ngõ 36 Phố Cầu Am, Vạn Phúc","latitude":"20.9774361","name":"Phở bò Hùng Béo, Vạn Phúc - Hà Đông","street_number":"Số 2 Ngõ 36 Phố Cầu Am, Vạn Phúc","type":"50","longitude":"105.7762744"},"way_id":684923016}
{"request":{"street":"22 Ngõ 4 Phố, Ba Đình","latitude":"20.9773618","name":"Công Ty Cổ Phần Việt Hải Đăng","street_number":"22 Ngõ 4 Phố, Ba Đình","type":"114","longitude":"105.7760904"},"way_id":684923016}
{"request":{"street":"28 Phố Cầu Am, Vạn Phúc","latitude":"20.9774588","name":"Công Ty Tnhh Thương Mại Dịch Vụ Phong Linh","street_number":"28 Phố Cầu Am, Vạn Phúc","type":"114","longitude":"105.7758790"},"way_id":684923016}
{"request":{"street":"làng, Hà Đông","latitude":"20.9778796","name":"Gạo KIBAFOOD 4","street_number":"làng, Hà Đông","type":"50","longitude":"105.7758817"},"way_id":684923016}
{"request":{"street":"Số 9 Ngõ 4 Phố, Vạn Phúc","latitude":"20.9776336","name":"Công Ty Tnhh Thương Mại Và Nội Thất Phú Thái","street_number":"Số 9 Ngõ 4 Phố, Vạn Phúc","type":"114","longitude":"105.7765363"},"way_id":684923016}
{"request":{"street":"2 Phố Cầu Am, Vạn Phúc","latitude":"20.9772717","name":"Công Ty Cổ Phần Đầu Tư Xây Dựng Và Thương Mại Quốc Tế Hdt Việt Nam","street_number":"2 Phố Cầu Am, Vạn Phúc","type":"114","longitude":"105.7761309"},"way_id":684923016}
{"request":{"street":"42B Phố Cầu Am, Vạn Phúc","latitude":"20.9777668","name":"Cửa Hàng Cháo Dinh Dưỡng Duyên Hải","street_number":"42B Phố Cầu Am, Vạn Phúc","type":"93","longitude":"105.7757129"},"way_id":684923016}
{"request":{"street":"36a Phố Cầu Am, Vạn Phúc","latitude":"20.9772541","name":"Quán nướng chị em","street_number":"36a Phố Cầu Am, Vạn Phúc","type":"50","longitude":"105.7761097"},"way_id":684923016}
{"request":{"street":"36a Phố Cầu Am, Vạn Phúc","latitude":"20.9772602","name":"Quán chè ngon 36 Cầu Am","street_number":"36a Phố Cầu Am, Vạn Phúc","type":"50","longitude":"105.7760270"},"way_id":684923016}
{"request":{"street":"34 Ngõ 4, Phố","latitude":"20.9772418","name":"Công Ty Tnhh Dược Phẩm Hoàng Long Việt Nam","street_number":"34 Ngõ 4, Phố","type":"4","longitude":"105.7761973"},"way_id":684923016}
{"request":{"street":"Kiốt 11 mặt sau tòa nhà 2A, Khu nhà ở xã hội Hưng Thịnh, Kiến Hưng, Hà Đông Đại lý Nội trợ 4.0 Hanoi Hanoi City","latitude":"20.9480529","name":"Thịt mát MEAT Deli - cửa hàng thịt heo sạch","street_number":"Kiốt 11 mặt sau tòa nhà 2A, Khu nhà ở xã hội Hưng Thịnh, Kiến Hưng, Hà Đông Đại lý Nội trợ 4.0 Hanoi Hanoi City","type":"93","longitude":"105.7827113"},"way_id":595927256}
{"request":{"street":"Kiến Hưng","latitude":"20.9474890","name":"NHÀ SỐ - HOMEDIGITAL","street_number":"Kiến Hưng","type":"93","longitude":"105.7827890"},"way_id":595927256}
{"request":{"street":"Tầng 4, Tòa 1B Tòa Nhà Hưng Thịnh, Kiến Hưng","latitude":"20.9477066","name":"Xe đẩy hàng giá rẻ","street_number":"Tầng 4, Tòa 1B Tòa Nhà Hưng Thịnh, Kiến Hưng","type":"114","longitude":"105.7831075"},"way_id":595927256}
{"request":{"street":"Tầng 4, Tòa 1B Tòa Nhà Hưng Thịnh","latitude":"20.9482785","name":"Zuna.vn - Mua sắm trực tuyến uy tín số 1","street_number":"Tầng 4, Tòa 1B Tòa Nhà Hưng Thịnh","type":"114","longitude":"105.7833714"},"way_id":595927256}
{"request":{"street":"Vietnam","latitude":"20.9470192","name":"Thực Phẩm Sạch Ánh Plus","street_number":"Vietnam","type":"93","longitude":"105.7829204"},"way_id":595927256}
{"request":{"street":"Unnamed Road","latitude":"20.9471461","name":"Kđt Kiến Hưng","street_number":"Unnamed Road","type":"114","longitude":"105.7831472"},"way_id":595927256}
{"request":{"street":"Vietnam","latitude":"20.9469173","name":"Hà Huyền Thực Phẩm Sạch Các Loại","street_number":"Vietnam","type":"93","longitude":"105.7829714"},"way_id":595927256}
{"request":{"street":"Vietnam","latitude":"20.9468725","name":"Nhà Thuốc Nhật Minh","street_number":"Vietnam","type":"93","longitude":"105.7829924"},"way_id":595927256}
{"request":{"street":"khu đô thị mới Kiến Hưng phường, Kiến Hưng","latitude":"20.9469432","name":"Ban Quản Lý Tòa Nhà Hưng Thịnh","street_number":"khu đô thị mới Kiến Hưng phường, Kiến Hưng","type":"114","longitude":"105.7832541"},"way_id":595927256}
{"request":{"street":"undefined","latitude":"20.9469677","name":"Nhà Khim","street_number":"undefined","type":"114","longitude":"105.7833510"},"way_id":595927256}
{"request":{"street":"Khu đô thị mới","latitude":"20.9472056","name":"Khu Nhà Ở Hưng Thịnh","street_number":"Khu đô thị mới","type":"114","longitude":"105.7836014"},"way_id":595927256}
{"request":{"street":"Vietnam","latitude":"20.9467377","name":"Gv - Mart","street_number":"Vietnam","type":"93","longitude":"105.7830253"},"way_id":595927256}
{"request":{"street":"Vietnam","latitude":"20.9466838","name":"Thắm Hoàng","street_number":"Vietnam","type":"114","longitude":"105.7829895"},"way_id":595927256}
{"request":{"street":"Kiến Hưng","latitude":"20.9465776","name":"Công ty cổ phần thương mại dịch vụ xây dựng HST Việt Nam","street_number":"Kiến Hưng","type":"114","longitude":"105.7828875"},"way_id":595927256}
{"request":{"street":"undefined","latitude":"20.9472576","name":"Mỹ phẩm narguerite, hàng xách Tay","street_number":"undefined","type":"93","longitude":"105.7839823"},"way_id":595927256}
{"request":{"street":"Unnamed Road","latitude":"20.9470124","name":"Chung cư mới kiến hưng","street_number":"Unnamed Road","type":"114","longitude":"105.7839025"},"way_id":595927256}
{"request":{"street":"Hà Đông Hà Nội","latitude":"20.9467673","name":"Toà 2B Hưng Thịnh","street_number":"Hà Đông Hà Nội","type":"114","longitude":"105.7838905"},"way_id":595927256}
{"request":{"street":"undefined","latitude":"20.9472240","name":"Toà 2A Hưng Thịnh","street_number":"undefined","type":"114","longitude":"105.7842210"},"way_id":595927256}
{"request":{"street":"Phú Lương","latitude":"20.9370800","name":"Phú Lương","street_number":"Phú Lương","type":"2","longitude":"105.7673942"},"way_id":595927256}
{"request":{"street":"Ngõ 2, Tân Triều","latitude":"20.9579179","name":"Cơ sở phân phối rượu cần Hòa Bình Hoa Long Cát","street_number":"Ngõ 2, Tân Triều","type":"93","longitude":"105.8032912"},"way_id":616525486}
{"request":{"street":"Số 70, Ngõ 114, Tân Triều","latitude":"20.9580745","name":"Sản Xuất Việt","street_number":"Số 70, Ngõ 114, Tân Triều","type":"114","longitude":"105.8022948"},"way_id":616525486}
{"request":{"street":"Ngõ 115 Đường Cầu Bươu, Tân Triều","latitude":"20.9584941","name":"Đại Uy","street_number":"Ngõ 115 Đường Cầu Bươu, Tân Triều","type":"4","longitude":"105.8023801"},"way_id":616525486}
{"request":{"street":"Số 120 Ngõ 115 TT Mộc Đức","latitude":"20.9585784","name":"Công ty Cổ phần Phụ Tùng Ô Tô Thành Nam","street_number":"Số 120 Ngõ 115 TT Mộc Đức","type":"93","longitude":"105.8027692"},"way_id":616525486}
{"request":{"street":"Số nhà 22B, Ngõ 2 Cầu Bươu, Huyện Thanh Trì","latitude":"20.9581725","name":"Showroom Nội Thất Thông Minh X HOME","street_number":"Số nhà 22B, Ngõ 2 Cầu Bươu, Huyện Thanh Trì","type":"93","longitude":"105.8032670"},"way_id":616525486}
{"request":{"street":"27-ĐG 12-Khu đấu giá ĐT, Hữu Hoà","latitude":"20.9463684","name":"Sách Trà Quán","street_number":"27-ĐG 12-Khu đấu giá ĐT, Hữu Hoà","type":"52","longitude":"105.7929370"},"way_id":599148683}
{"request":{"street":"18 TT10 Khu Đô thị","latitude":"20.9463136","name":"Nhà Hàng Hiền Giang","street_number":"18 TT10 Khu Đô thị","type":"50","longitude":"105.7927788"},"way_id":599148683}
{"request":{"street":"Dg 12-25 tái định cư","latitude":"20.9462294","name":"Công Ty TNHH Dịch Vụ Và Thương Mại Karass Việt Nam","street_number":"Dg 12-25 tái định cư","type":"93","longitude":"105.7929295"},"way_id":599148683}
{"request":{"street":"Khu đô thị Mậu Lương","latitude":"20.9460509","name":"Nhà trọ Kiến Hưng","street_number":"Khu đô thị Mậu Lương","type":"114","longitude":"105.7929251"},"way_id":599148683}
{"request":{"street":"Khu đô thị Mậu Lương","latitude":"20.9459778","name":"Xốp Dán Tường 3D Mậu Lương","street_number":"Khu đô thị Mậu Lương","type":"93","longitude":"105.7927822"},"way_id":599148683}
{"request":{"street":"DG12-13","latitude":"20.9456887","name":"Công ty cp thiết kế sản xuất và thương mại nội thất Gỗ Xinh","street_number":"DG12-13","type":"114","longitude":"105.7926840"},"way_id":599148683}
{"request":{"street":"Kiến Hưng, Số nhà 27 Tổ 17","latitude":"20.9611390","name":"27 Đức Long - Nhà Nghỉ Trọ","street_number":"Kiến Hưng, Số nhà 27 Tổ 17","type":"24","longitude":"105.7978168"},"way_id":599518184}
{"request":{"street":"21 Tổ 15, Tân Triều","latitude":"20.9611221","name":"Phòng Trọ 21 Trang Nguyên","street_number":"21 Tổ 15, Tân Triều","type":"24","longitude":"105.7978019"},"way_id":599518184}
{"request":{"street":"Tổ 15","latitude":"20.9612797","name":"Điện tử Cường Thuận","street_number":"Tổ 15","type":"93","longitude":"105.7976468"},"way_id":599518184}
{"request":{"street":"số 70 ngõ 108 tổ 15, Đường Cầu Bươu","latitude":"20.9611000","name":"Hotel 70","street_number":"số 70 ngõ 108 tổ 15, Đường Cầu Bươu","type":"24","longitude":"105.7976521"},"way_id":599518184}
{"request":{"street":"15 Ngõ 104 Phố Yên Lãng, Tổ 15","latitude":"20.9615600","name":"Nhà Thuốc Tây Linh Trang","street_number":"15 Ngõ 104 Phố Yên Lãng, Tổ 15","type":"93","longitude":"105.7980000"},"way_id":599518184}
{"request":{"street":"Tân Triều","latitude":"20.9608980","name":"Nhà trọ 34","street_number":"Tân Triều","type":"24","longitude":"105.7977749"},"way_id":599518184}
{"request":{"street":"Số 46 - Tổ 15, Kiến Hưng","latitude":"20.9615927","name":"TÓC GIẢ SÀI GÒN - HÀ NỘI","street_number":"Số 46 - Tổ 15, Kiến Hưng","type":"93","longitude":"105.7980292"},"way_id":599518184}
{"request":{"street":"Đối diện cổng viện k3, Số 10 Ngõ 110, Kiến Hưng","latitude":"20.9616260","name":"Nhà thuốc Tiến Anh","street_number":"Đối diện cổng viện k3, Số 10 Ngõ 110, Kiến Hưng","type":"93","longitude":"105.7979550"},"way_id":599518184}
{"request":{"street":"52","latitude":"20.9616700","name":"Nhà Trọ 52","street_number":"52","type":"24","longitude":"105.7978000"},"way_id":599518184}
{"request":{"street":"Khảo Sát, 48, Khu Tập Thể, Thanh Xuân Bắc","latitude":"20.9616800","name":"Tiệm Mi - Nail Trâm Anh","street_number":"Khảo Sát, 48, Khu Tập Thể, Thanh Xuân Bắc","type":"84","longitude":"105.7977000"},"way_id":599518184}
{"request":{"street":"K3, Tân Triều","latitude":"20.9616700","name":"Shop Tóc Giả Sài Gòn","street_number":"K3, Tân Triều","type":"100","longitude":"105.7980000"},"way_id":599518184}
{"request":{"street":"Unnamed Road, Tân Triều","latitude":"20.9615921","name":"Nhà trọ 11 Hà Phương","street_number":"Unnamed Road, Tân Triều","type":"24","longitude":"105.7981401"},"way_id":599518184}
{"request":{"street":"Ngõ 108 Đường Phùng Hưng, Kiến Hưng","latitude":"20.9613088","name":"Nhà Trọ Mai Béo - Viện K3 Tân Triều","street_number":"Ngõ 108 Đường Phùng Hưng, Kiến Hưng","type":"114","longitude":"105.7973444"},"way_id":599518184}
{"request":{"street":"Số 113 tổ 15","latitude":"20.9616817","name":"Bãi trông giữ xe ô tô Ngày Đêm","street_number":"Số 113 tổ 15","type":"75","longitude":"105.7976287"},"way_id":599518184}
{"request":{"street":"số 130/110, Tân Triều","latitude":"20.9617225","name":"Công ty TNHH in bao bì trường phát","street_number":"số 130/110, Tân Triều","type":"93","longitude":"105.7975232"},"way_id":599518184}
{"request":{"street":"181 Ngõ 79, Hoàng Liệt","latitude":"20.9617600","name":"Tiệm Tóc Phương Anh 181","street_number":"181 Ngõ 79, Hoàng Liệt","type":"100","longitude":"105.7981000"},"way_id":599518184}
{"request":{"street":"Tân Triều","latitude":"20.9617104","name":"Vách Ngăn Vệ Sinh","street_number":"Tân Triều","type":"114","longitude":"105.7973947"},"way_id":599518184}
{"request":{"street":"Số 64 ngõ 75 phố Lụa, phường Vạn Phúc Hà Đông Hanoi City","latitude":"20.9828096","name":"CÔNG TY CỔ PHẦN DESTCOM","street_number":"Số 64 ngõ 75 phố Lụa, phường Vạn Phúc Hà Đông Hanoi City","type":"114","longitude":"105.7753974"},"way_id":684923005}
{"request":{"street":"67 Ngõ 77 Phố Lụa, Vạn Phúc","latitude":"20.9833651","name":"Học Thái Bảo","street_number":"67 Ngõ 77 Phố Lụa, Vạn Phúc","type":"114","longitude":"105.7753161"},"way_id":684923005}
{"request":{"street":"Vietnam","latitude":"20.9835659","name":"Eureka","street_number":"Vietnam","type":"114","longitude":"105.7750440"},"way_id":684923005}
{"request":{"street":"Unnamed Road","latitude":"20.9833759","name":"Nhà Hàng Thúy Hằng 6","street_number":"Unnamed Road","type":"50","longitude":"105.7748659"},"way_id":684923005}
{"request":{"street":"Khu Dịch Vụ, Mậu Lương","latitude":"20.9511400","name":"Công Ty CP Vitalland Việt Nam","street_number":"Khu Dịch Vụ, Mậu Lương","type":"114","longitude":"105.7916000"},"way_id":599192276}
{"request":{"street":"Phố Hoàng Công, Kiến Hưng","latitude":"20.9511778","name":"Lắp Mạng FPT - Tổng Đài Cáp Quang FPT","street_number":"Phố Hoàng Công, Kiến Hưng","type":"114","longitude":"105.7915225"},"way_id":599192276}
{"request":{"street":"406 M2 Chung cư Mipec City View, Phố Hoàng Công, Kiến Hưng","latitude":"20.9514485","name":"onaga","street_number":"406 M2 Chung cư Mipec City View, Phố Hoàng Công, Kiến Hưng","type":"93","longitude":"105.7912448"},"way_id":599192276}
{"request":{"street":"Phố Hoàng Công, Kiến Hưng","latitude":"20.9514959","name":"Kiến Trúc DDG","street_number":"Phố Hoàng Công, Kiến Hưng","type":"114","longitude":"105.7911993"},"way_id":599192276}
{"request":{"street":"Phố Hoàng Công, Kiến Hưng","latitude":"20.9513059","name":"Dịch vụ Kế toán Thuế trọn gói giá rẻ","street_number":"Phố Hoàng Công, Kiến Hưng","type":"114","longitude":"105.7912312"},"way_id":599192276}
{"request":{"street":"undefined","latitude":"20.9508716","name":"Chung cư Bộ Quốc Phòng","street_number":"undefined","type":"114","longitude":"105.7915927"},"way_id":599192276}
{"request":{"street":"Phố Hoàng Công, Kiến Hưng","latitude":"20.9512118","name":"Siêu Thị Điện Máy Pico","street_number":"Phố Hoàng Công, Kiến Hưng","type":"93","longitude":"105.7912296"},"way_id":599192276}
{"request":{"street":"tòa nhà M2 Mipec, khu đô thị","latitude":"20.9508911","name":"Công ty TNHH Cân Điện tử Thăng Long","street_number":"tòa nhà M2 Mipec, khu đô thị","type":"114","longitude":"105.7914717"},"way_id":599192276}
{"request":{"street":"Vietnam","latitude":"20.9510333","name":"Đối Diện Khu Chung Cư Và Nhà Ở Quân Đội - Bộ Quốc Phòng - Đường Lê Xuân Điệp","street_number":"Vietnam","type":"113","longitude":"105.7913000"},"way_id":599192276}
{"request":{"street":"khu đô thi mơi Cầu bươu, TP, Tân Triều","latitude":"20.9599431","name":"Công ty Việt Nhật","street_number":"khu đô thi mơi Cầu bươu, TP, Tân Triều","type":"114","longitude":"105.8013042"},"way_id":599508341}
{"request":{"street":"số 114 tổ 10","latitude":"20.9563191","name":"Trung tâm ngoại ngữ English Fun Số 114 tổ 10 khu dãn dân mậu lương kiến hưng hà đông hà nội","street_number":"số 114 tổ 10","type":"4","longitude":"105.7924507"},"way_id":599536675}
{"request":{"street":"Số nhà 136, tổ 10, khu dãn dân, Mậu Lương, Kiến Hưng","latitude":"20.9562619","name":"Thịt lợn sạch Hoàng Hoa","street_number":"Số nhà 136, tổ 10, khu dãn dân, Mậu Lương, Kiến Hưng","type":"93","longitude":"105.7925563"},"way_id":599536675}
{"request":{"street":"Số nhà 51, Tổ 10, Khu dân cư mới Mậu Lương, Phường Kiến Hưng, Quận Hà Đông","latitude":"20.9563998","name":"Công ty TNHH Thiết Bị Và Xây Lắp Giang Nam","street_number":"Số nhà 51, Tổ 10, Khu dân cư mới Mậu Lương, Phường Kiến Hưng, Quận Hà Đông","type":"114","longitude":"105.7924167"},"way_id":599536675}
{"request":{"street":"132, Đường Mậu Lương, Phường Kiến Hưng, Quận Hà Đông, Kiến Hưng","latitude":"20.9559899","name":"Cửa Hàng Inox Trường Phát","street_number":"132, Đường Mậu Lương, Phường Kiến Hưng, Quận Hà Đông, Kiến Hưng","type":"93","longitude":"105.7926723"},"way_id":599536675}
{"request":{"street":"136, Đường Mậu Lương, Phường Kiến Hưng, Quận Hà Đông, Kiến Hưng","latitude":"20.9559005","name":"Văn Phòng Nhà Đất Mậu Lương","street_number":"136, Đường Mậu Lương, Phường Kiến Hưng, Quận Hà Đông, Kiến Hưng","type":"114","longitude":"105.7926131"},"way_id":599536675}
{"request":{"street":"Lô1, LK1, Đường Mậu Lương Phường Kiến Hưng, Quận Hà Đông, Kiến Hưng","latitude":"20.9559811","name":"Văn Phòng Nhà Đất Minh Nhân","street_number":"Lô1, LK1, Đường Mậu Lương Phường Kiến Hưng, Quận Hà Đông, Kiến Hưng","type":"114","longitude":"105.7927045"},"way_id":599536675}
{"request":{"street":"Số nhà 136, tổ 10, khu dãn dân, Mậu Lương","latitude":"20.9563515","name":"Sửa chữa nhà cửa Nguyễn Thắng","street_number":"Số nhà 136, tổ 10, khu dãn dân, Mậu Lương","type":"114","longitude":"105.7926422"},"way_id":599536675}
{"request":{"street":"44, Đường Mậu Lương, Kiến Hưng","latitude":"20.9563418","name":"Tiệm Rửa Xe Ô Tô","street_number":"44, Đường Mậu Lương, Kiến Hưng","type":"108","longitude":"105.7927524"},"way_id":599536675}
{"request":{"street":"36, Đường Mậu Lương, Phường Kiến Hưng, Quận Hà Đông, Kiến Hưng","latitude":"20.9564533","name":"Xưởng Cơ Khí Tuấn Huy","street_number":"36, Đường Mậu Lương, Phường Kiến Hưng, Quận Hà Đông, Kiến Hưng","type":"114","longitude":"105.7926791"},"way_id":599536675}
{"request":{"street":"Đường Mậu Lương, Kiến Hưng","latitude":"20.9557523","name":"Rửa xe Ngọc Hà","street_number":"Đường Mậu Lương, Kiến Hưng","type":"108","longitude":"105.7926398"},"way_id":599536675}
{"request":{"street":"131 Phố Hoàng Công, Kiến Hưng","latitude":"20.9560496","name":"KhoSimGiaRe.Com","street_number":"131 Phố Hoàng Công, Kiến Hưng","type":"114","longitude":"105.7928396"},"way_id":599536675}
{"request":{"street":"Số nhà Dv13-Lk599, Mậu Lương, Kiến Hưng","latitude":"20.9494912","name":"Công Ty Tnhh Dệt May T \u0026 N","street_number":"Số nhà Dv13-Lk599, Mậu Lương, Kiến Hưng","type":"114","longitude":"105.7884064"},"way_id":599192256}
{"request":{"street":"Unnamed Road","latitude":"20.9496593","name":"CÔNG TY CP DORIC VIỆT NAM","street_number":"Unnamed Road","type":"114","longitude":"105.7885881"},"way_id":599192256}
{"request":{"street":"Dịch vụ 19, Kiến Hưng","latitude":"20.9496241","name":"Công ty TNHH Xây Dựng TXD","street_number":"Dịch vụ 19, Kiến Hưng","type":"114","longitude":"105.7882051"},"way_id":599192256}
{"request":{"street":"Lk 594, dịch vụ 13, Khu đô thị Mậu Lương","latitude":"20.9496846","name":"TXD Nhà Thầu Xây Dựng","street_number":"Lk 594, dịch vụ 13, Khu đô thị Mậu Lương","type":"114","longitude":"105.7881102"},"way_id":599192256}
{"request":{"street":"Liền kề 594, Dịch vụ 13, Khu đô thị Mậu Lương","latitude":"20.9496912","name":"TXD_Công ty xây nhà, sửa nhà trọn gói uy tín số 1 Hà Nội","street_number":"Liền kề 594, Dịch vụ 13, Khu đô thị Mậu Lương","type":"114","longitude":"105.7881086"},"way_id":599192256}
{"request":{"street":"Lk571 dv12, Hàng Bè","latitude":"20.9495922","name":"Công ty tnhh kinh doanh và dịch vụ thiên đức","street_number":"Lk571 dv12, Hàng Bè","type":"114","longitude":"105.7880227"},"way_id":599192256}
{"request":{"street":"Vietnam","latitude":"20.9498837","name":"Đại Lý Hải Nam","street_number":"Vietnam","type":"114","longitude":"105.7882961"},"way_id":599192256}
{"request":{"street":"Dịch vụ 19, Kiến Hưng","latitude":"20.9491999","name":"Tổng Kho Trụ Cứu Hỏa","street_number":"Dịch vụ 19, Kiến Hưng","type":"93","longitude":"105.7881097"},"way_id":599192256}
{"request":{"street":"tổ 19 Kiến Hưng, Kiến Hưng","latitude":"20.9489436","name":"Công ty TNHH PT TM \u0026 KT Thành Công (TCELECTRIC)","street_number":"tổ 19 Kiến Hưng, Kiến Hưng","type":"114","longitude":"105.7882897"},"way_id":599192256}
{"request":{"street":"LK616, DV14, Hàng Bè, Mậu Lương, Kiến Hưng","latitude":"20.9492362","name":"Dược Qmed","street_number":"LK616, DV14, Hàng Bè, Mậu Lương, Kiến Hưng","type":"114","longitude":"105.7878475"},"way_id":599192256}
{"request":{"street":"Vietnam","latitude":"20.9496391","name":"Nội Thất Faha Chuyên Sản Xuất \u0026 Thương Mại","street_number":"Vietnam","type":"93","longitude":"105.7877832"},"way_id":599192256}
{"request":{"street":"LK-616, DV, 14 Hàng Bè, Mậu Lương","latitude":"20.9492263","name":"ARENA VIỆT NAM","street_number":"LK-616, DV, 14 Hàng Bè, Mậu Lương","type":"114","longitude":"105.7878417"},"way_id":599192256}
{"request":{"street":"Liền kề 300, dịch vụ 06, khu đô thị Hàng Bè, Kiến Hưng","latitude":"20.9501710","name":"Nhà Mỡ Gold","street_number":"Liền kề 300, dịch vụ 06, khu đô thị Hàng Bè, Kiến Hưng","type":"84","longitude":"105.7884360"},"way_id":599192256}
{"request":{"street":"Vietnam","latitude":"20.9499835","name":"Bách Hóa Mỹ Phẩm Bảo Nhi","street_number":"Vietnam","type":"114","longitude":"105.7879113"},"way_id":599192256}
{"request":{"street":"làng Vạn Phúc","latitude":"20.9775340","name":"Nhà Lưu Niệm Bác Hồ","street_number":"làng Vạn Phúc","type":"114","longitude":"105.7766830"},"way_id":600126477}
{"request":{"street":"Vạn Phúc","latitude":"20.9771213","name":"Số 30 phố Cầu Am, Đoàn Kết","street_number":"Vạn Phúc","type":"114","longitude":"105.7762909"},"way_id":600126477}
{"request":{"street":"Số 40 Ngõ 4 Phố Cầu Am, Vạn Phúc","latitude":"20.9776505","name":"Công Ty Cổ Phần An Ninh Và Thương Mại Phúc Cường","street_number":"Số 40 Ngõ 4 Phố Cầu Am, Vạn Phúc","type":"114","longitude":"105.7768081"},"way_id":600126477}
{"request":{"street":"17, Đường Vạn Phúc, Phường Vạn Phúc, Quận Hà Đông, Vạn Phúc","latitude":"20.9772346","name":"Cửa Hàng Điện Gia Dụng Hương Giang","street_number":"17, Đường Vạn Phúc, Phường Vạn Phúc, Quận Hà Đông, Vạn Phúc","type":"93","longitude":"105.7767400"},"way_id":600126477}
{"request":{"street":"Khu ĐG Ngõ Cổng","latitude":"20.9563374","name":"Khu Đấu giá Ngõ Cổng Kiến Hưng","street_number":"Khu ĐG Ngõ Cổng","type":"114","longitude":"105.7848634"},"way_id":599536642}
{"request":{"street":"Lô 184, Khu đấu giá Ngõ Cổng, Ph, Kiến Hưng","latitude":"20.9563193","name":"CÔNG TY TNHH ĐẦU TƯ THƯƠNG MẠI VÀ DỊCH VỤ KIẾN HƯNG","street_number":"Lô 184, Khu đấu giá Ngõ Cổng, Ph, Kiến Hưng","type":"114","longitude":"105.7846656"},"way_id":599536642}
{"request":{"street":"249 Tổ 7 Đa Sỹ, Kiến Hưng","latitude":"20.9564524","name":"Lemico Home","street_number":"249 Tổ 7 Đa Sỹ, Kiến Hưng","type":"93","longitude":"105.7848631"},"way_id":599536642}
{"request":{"street":"Khu Đấu Giá, Đa Sỹ","latitude":"20.9564115","name":"Khểnh Sneaker","street_number":"Khu Đấu Giá, Đa Sỹ","type":"93","longitude":"105.7843977"},"way_id":599536642}
{"request":{"street":"180 Ngõ 26 Tổ, 5 Đa Sỹ, Kiến Hưng","latitude":"20.9569034","name":"Lắp Đặt Sửa Chữa Điều Hòa","street_number":"180 Ngõ 26 Tổ, 5 Đa Sỹ, Kiến Hưng","type":"114","longitude":"105.7839417"},"way_id":599536642}
{"request":{"street":"Kiến Hưng, Kiến Hưng","latitude":"20.9566976","name":"Công ty cổ phần đầu tư và phát triển Nhật Quang","street_number":"Kiến Hưng, Kiến Hưng","type":"93","longitude":"105.7836997"},"way_id":599536642}
{"request":{"street":"undefined","latitude":"20.9799596","name":"Đường Vạn Phúc","street_number":"undefined","type":"114","longitude":"105.7722571"},"way_id":685028793}
{"request":{"street":"15 Ngõ 81, Vạn Phúc","latitude":"20.9793971","name":"Myt english club","street_number":"15 Ngõ 81, Vạn Phúc","type":"114","longitude":"105.7718163"},"way_id":685028793}
{"request":{"street":"286, Đường 430, Phường Vạn Phúc, Quận Hà Đông, Thành Phố Hà Nội, Vạn Phúc","latitude":"20.9794731","name":"Cửa Hàng Rèm Mỹ Anh","street_number":"286, Đường 430, Phường Vạn Phúc, Quận Hà Đông, Thành Phố Hà Nội, Vạn Phúc","type":"93","longitude":"105.7725143"},"way_id":685028793}
{"request":{"street":"70 Đường Vạn Phúc, Vạn Phúc","latitude":"20.9793682","name":"Nội Thất Hoà Phát, Xuân Hoà, 190 Hà Đông","street_number":"70 Đường Vạn Phúc, Vạn Phúc","type":"93","longitude":"105.7725368"},"way_id":685028793}
{"request":{"street":"10 Đường Vạn Phúc","latitude":"20.9791270","name":"Elvy shoes shop","street_number":"10 Đường Vạn Phúc","type":"93","longitude":"105.7722928"},"way_id":685028793}
{"request":{"street":"Đường 430, Vạn Phúc, Hà Đông, Vạn Phúc","latitude":"20.9794279","name":"CÔNG TY TNHH XD VÀ TM PHONG CÁCH MỚI","street_number":"Đường 430, Vạn Phúc, Hà Đông, Vạn Phúc","type":"114","longitude":"105.7725985"},"way_id":685028793}
{"request":{"street":"68, Hamlet 10, Van Phuc Street, Van Phuc Ward, Ha Dong District, Vạn Phúc","latitude":"20.9795993","name":"Huy Son Motorcar Parts Shop","street_number":"68, Hamlet 10, Van Phuc Street, Van Phuc Ward, Ha Dong District, Vạn Phúc","type":"93","longitude":"105.7721117"},"way_id":685028793}
{"request":{"street":"Khu Tập Thể, Vạn Phúc","latitude":"20.9793880","name":"Tập thể giấy Thăng Long","street_number":"Khu Tập Thể, Vạn Phúc","type":"114","longitude":"105.7721110"},"way_id":685028793}
{"request":{"street":"176 Đường Vạn Phúc, Vạn Phúc","latitude":"20.9795940","name":"Đại lý EVERON Vạn Phúc","street_number":"176 Đường Vạn Phúc, Vạn Phúc","type":"93","longitude":"105.7723326"},"way_id":685028793}
{"request":{"street":"130 Hà Đông","latitude":"20.9796539","name":"Beta Three Miền Bắc","street_number":"130 Hà Đông","type":"93","longitude":"105.7723069"},"way_id":685028793}
{"request":{"street":"148 Đường Vạn Phúc, Vạn Phúc","latitude":"20.9796539","name":"Mỹ Phẩm Thu Quang","street_number":"148 Đường Vạn Phúc, Vạn Phúc","type":"93","longitude":"105.7723070"},"way_id":685028793}
{"request":{"street":"85 Đường Vạn Phúc, Vạn Phúc","latitude":"20.9796500","name":"Kiên Review","street_number":"85 Đường Vạn Phúc, Vạn Phúc","type":"114","longitude":"105.7723115"},"way_id":685028793}
{"request":{"street":"87 Đường Vạn Phúc, Vạn Phúc","latitude":"20.9796973","name":"Dulux SCT68","street_number":"87 Đường Vạn Phúc, Vạn Phúc","type":"93","longitude":"105.7722777"},"way_id":685028793}
{"request":{"street":"Vietnam","latitude":"20.9796958","name":"Quang Hoa Đá Ốp Lát","street_number":"Vietnam","type":"114","longitude":"105.7722928"},"way_id":685028793}
{"request":{"street":"Ngõ 103 Vạn Phúc, Vạn Phúc","latitude":"20.9793243","name":"Minh Anh Company. Ltd","street_number":"Ngõ 103 Vạn Phúc, Vạn Phúc","type":"93","longitude":"105.7721713"},"way_id":685028793}
{"request":{"street":"Vietnam","latitude":"20.9797293","name":"Womax Tổng Kho Vật Liệu Xây Dựng","street_number":"Vietnam","type":"93","longitude":"105.7722817"},"way_id":685028793}
{"request":{"street":"K09, Khu Đấu Giá Kiến Hưng Hà Cầu, Phường Kiến Hưng, Quận Hà Đông, Thành Phố Hà Nội, Kiến Hưng","latitude":"20.9450880","name":"Công Ty TNHH Kiến Trúc Xây Dựng Và Đầu Tư Phi Long","street_number":"K09, Khu Đấu Giá Kiến Hưng Hà Cầu, Phường Kiến Hưng, Quận Hà Đông, Thành Phố Hà Nội, Kiến Hưng","type":"114","longitude":"105.7909154"},"way_id":595927278}
{"request":{"street":"Kiến Hưng","latitude":"20.9453960","name":"Cháo Dinh Dưỡng Thanh Thảo","street_number":"Kiến Hưng","type":"50","longitude":"105.7903764"},"way_id":595927278}
{"request":{"street":"Khu đấu giá","latitude":"20.9454130","name":"Tòa nhà văn phòng kinh doanh DG5-18 Kiến Hưng","street_number":"Khu đấu giá","type":"114","longitude":"105.7903851"},"way_id":595927278}
{"request":{"street":"DG5-18, khu đấu giá, Kiến Hưng","latitude":"20.9454266","name":"Văn phòng kinh doanh DG5-18 Kiến Hưng","street_number":"DG5-18, khu đấu giá, Kiến Hưng","type":"114","longitude":"105.7903737"},"way_id":595927278}
{"request":{"street":"Phố Hoàng Công, Kiến Hưng","latitude":"20.9450023","name":"Trường THCS Kiến Hưng","street_number":"Phố Hoàng Công, Kiến Hưng","type":"5","longitude":"105.7910112"},"way_id":595927278}
{"request":{"street":"undefined","latitude":"20.9454547","name":"Tạp Hóa Anh Quyết","street_number":"undefined","type":"93","longitude":"105.7904369"},"way_id":595927278}
{"request":{"street":"Đấu giá 05-16 khu đấu giá quyền sử đất, Mậu Lương, Kiến Hưng","latitude":"20.9454980","name":"Phòng khám chuyên khoa Nhi phương Thảo","street_number":"Đấu giá 05-16 khu đấu giá quyền sử đất, Mậu Lương, Kiến Hưng","type":"4","longitude":"105.7902882"},"way_id":595927278}
{"request":{"street":"Kiến Hưng","latitude":"20.9456272","name":"Trường trung học cơ sở Mậu Lương","street_number":"Kiến Hưng","type":"5","longitude":"105.7909190"},"way_id":595927278}
{"request":{"street":"Khu đô thị Mậu Lương","latitude":"20.9455561","name":"19DG06, KĐT Mậu Lương","street_number":"Khu đô thị Mậu Lương","type":"5","longitude":"105.7910530"},"way_id":595927278}
{"request":{"street":"Phố Hoàng Công, Kiến Hưng","latitude":"20.9456039","name":"19T3 Kiến Hưng","street_number":"Phố Hoàng Công, Kiến Hưng","type":"114","longitude":"105.7900418"},"way_id":595927278}
{"request":{"street":"Kiến Hưng","latitude":"20.9449888","name":"Trường Trung học Kiến Hưng","street_number":"Kiến Hưng","type":"5","longitude":"105.7913684"},"way_id":595927278}
{"request":{"street":"Vietnam","latitude":"20.9569172","name":"Tai Sin","street_number":"Vietnam","type":"114","longitude":"105.7950534"},"way_id":370306156}
{"request":{"street":"65 Đa Sỹ, Kiến Hưng","latitude":"20.9569621","name":"Cơ Sở Lắp Đặt Điện Nước Hải Bút","street_number":"65 Đa Sỹ, Kiến Hưng","type":"93","longitude":"105.7951819"},"way_id":370306156}
{"request":{"street":"32, Đường Mậu Lương, Phường Kiến Hưng, Quận Hà Đông, Kiến Hưng","latitude":"20.9567956","name":"Dịch Vụ Quảng Cáo Tân Toàn Phát","street_number":"32, Đường Mậu Lương, Phường Kiến Hưng, Quận Hà Đông, Kiến Hưng","type":"114","longitude":"105.7949770"},"way_id":370306156}
{"request":{"street":"61 Ngõ 73 Mậu Lương, Kiến Hưng","latitude":"20.9568017","name":"Nhà của Tùng","street_number":"61 Ngõ 73 Mậu Lương, Kiến Hưng","type":"114","longitude":"105.7950257"},"way_id":370306156}
{"request":{"street":"92 Mậu Lương, Kiến Hưng","latitude":"20.9568101","name":"Cafe Dương","street_number":"92 Mậu Lương, Kiến Hưng","type":"52","longitude":"105.7948077"},"way_id":370306156}
{"request":{"street":"Lô 3, LK8, Mậu Lương, Phường Kiến Hưng, Quận Hà Đông, Kiến Hưng","latitude":"20.9567604","name":"Quán Cà Phê","street_number":"Lô 3, LK8, Mậu Lương, Phường Kiến Hưng, Quận Hà Đông, Kiến Hưng","type":"114","longitude":"105.7949217"},"way_id":370306156}
{"request":{"street":"24, Đường Mậu Lương, Phường Kiến Hưng, Quận Hà Đông, Kiến Hưng","latitude":"20.9567732","name":"Cửa Hàng Tạp Hóa Phúc Hương","street_number":"24, Đường Mậu Lương, Phường Kiến Hưng, Quận Hà Đông, Kiến Hưng","type":"93","longitude":"105.7948256"},"way_id":370306156}
{"request":{"street":"Số 89 Mậu Lương, Kiến Hưng","latitude":"20.9566976","name":"Công Ty Cổ Phần Thương Mại Và Dịch Vụ Giao Hàng Siêu Việt","street_number":"Số 89 Mậu Lương, Kiến Hưng","type":"114","longitude":"105.7947508"},"way_id":370306156}
{"request":{"street":"Mậu Lương, Kiến Hưng","latitude":"20.9575408","name":"Nhà văn hoá tổ 11 mậu lương","street_number":"Mậu Lương, Kiến Hưng","type":"93","longitude":"105.7950117"},"way_id":370306156}
{"request":{"street":"Mậu Lương","latitude":"20.9566540","name":"CƠM BÌNH DÂN - BÚN MIẾN NGAN Mai Thương","street_number":"Mậu Lương","type":"50","longitude":"105.7948799"},"way_id":370306156}
{"request":{"street":"Đường Mậu Lương, Kiến Hưng","latitude":"20.9566611","name":"Màn hình Led - Làm biển quảng cáo Kiến Hưng","street_number":"Đường Mậu Lương, Kiến Hưng","type":"93","longitude":"105.7948255"},"way_id":370306156}
{"request":{"street":"91 Mậu Lương, Kiến Hưng","latitude":"20.9566799","name":"Đại Lý Gạo Hải Hậu 91","street_number":"91 Mậu Lương, Kiến Hưng","type":"93","longitude":"105.7947486"},"way_id":370306156}
{"request":{"street":"91 Mậu Lương, Kiến Hưng","latitude":"20.9566799","name":"Cửa Hàng Tự Chọn - Mậu Lương","street_number":"91 Mậu Lương, Kiến Hưng","type":"93","longitude":"105.7947485"},"way_id":370306156}
{"request":{"street":"undefined","latitude":"20.9575598","name":"Nhà văn hoá 11","street_number":"undefined","type":"13","longitude":"105.7950065"},"way_id":370306156}
{"request":{"street":"undefined","latitude":"20.9565586","name":"97-91 Mậu Lương","street_number":"undefined","type":"114","longitude":"105.7948190"},"way_id":600028575}
{"request":{"street":"17 Khu Giãn Dân Mậu Lương, Kiến Hưng","latitude":"20.9562047","name":"Công Ty Cp Tư Vấn Xây Dựng Thành Đô Hà Nội","street_number":"17 Khu Giãn Dân Mậu Lương, Kiến Hưng","type":"114","longitude":"105.7947457"},"way_id":600028575}
{"request":{"street":"20lk8, khu đấu giá, Mậu Lương","latitude":"20.9562086","name":"Cửa hàng quần áo Hồng Thành","street_number":"20lk8, khu đấu giá, Mậu Lương","type":"93","longitude":"105.7948048"},"way_id":600028575}
{"request":{"street":"13 Khu Giãn Dân Mậu Lương, Kiến Hưng","latitude":"20.9562398","name":"Cửa Hàng Bách Hóa Thảo Huyền","street_number":"13 Khu Giãn Dân Mậu Lương, Kiến Hưng","type":"93","longitude":"105.7945794"},"way_id":600028575}
{"request":{"street":"1 Khu Giãn Dân Mậu Lương, Kiến Hưng","latitude":"20.9560845","name":"Công Ty Cp Tư Vấn \u0026 Đầu Tư Phát Triển Công Nghệ Xây Dựng An Phát","street_number":"1 Khu Giãn Dân Mậu Lương, Kiến Hưng","type":"114","longitude":"105.7944345"},"way_id":600028575}
{"request":{"street":"11, Đường Mậu Lương, Phường Kiến Hưng, Quận Hà Đông, Kiến Hưng","latitude":"20.9563436","name":"Đại Lý Sơn Minh Thu","street_number":"11, Đường Mậu Lương, Phường Kiến Hưng, Quận Hà Đông, Kiến Hưng","type":"93","longitude":"105.7947365"},"way_id":600028575}
{"request":{"street":"23, Đường Mậu Lương, Phường Kiến Hưng, Quận Hà Đông, Kiến Hưng","latitude":"20.9563665","name":"Đại Lý Gạo Lộc Tâm","street_number":"23, Đường Mậu Lương, Phường Kiến Hưng, Quận Hà Đông, Kiến Hưng","type":"114","longitude":"105.7947727"},"way_id":600028575}
{"request":{"street":"Mậu Lương, Phường Kiến Hưng, Quận Hà Đông, Kiến Hưng","latitude":"20.9563535","name":"Cửa hàng Liên Hoàn","street_number":"Mậu Lương, Phường Kiến Hưng, Quận Hà Đông, Kiến Hưng","type":"93","longitude":"105.7948414"},"way_id":600028575}
{"request":{"street":"7, Đường Mậu Lương, Phường Kiến Hưng, Quận Hà Đông, Kiến Hưng","latitude":"20.9563900","name":"Cơ Sở Sản Xuất Đồ Gỗ Nội Thất Đức Tuấn","street_number":"7, Đường Mậu Lương, Phường Kiến Hưng, Quận Hà Đông, Kiến Hưng","type":"114","longitude":"105.7946384"},"way_id":600028575}
{"request":{"street":"100 Mậu Lương, Kiến Hưng","latitude":"20.9562986","name":"Cửa Hàng Thời Trang Hồng Thành","street_number":"100 Mậu Lương, Kiến Hưng","type":"93","longitude":"105.7949986"},"way_id":600028575}
{"request":{"street":"3, LK 8, Mậu Lương, Phường Kiến Hưng, Quận Hà Đông, Thành Phố Hà Nội, Thành Phố Hà Nội, Kiến Hưng","latitude":"20.9564100","name":"Café Hiển Vân","street_number":"3, LK 8, Mậu Lương, Phường Kiến Hưng, Quận Hà Đông, Thành Phố Hà Nội, Thành Phố Hà Nội, Kiến Hưng","type":"50","longitude":"105.7948000"},"way_id":600028575}
{"request":{"street":"90 Mậu Lương, Kiến Hưng","latitude":"20.9564047","name":"Shop Hoang Anh","street_number":"90 Mậu Lương, Kiến Hưng","type":"93","longitude":"105.7948229"},"way_id":600028575}
{"request":{"street":"Khu Giãn Dân Mậu Lương, Kiến Hưng","latitude":"20.9562648","name":"Cơ Sở Cơ Khí Thanh Tùng","street_number":"Khu Giãn Dân Mậu Lương, Kiến Hưng","type":"114","longitude":"105.7943487"},"way_id":600028575}
{"request":{"street":"5, Đường Mậu Lương, Phường Kiến Hưng, Quận Hà Đông, Kiến Hưng","latitude":"20.9563900","name":"Cửa Hàng Inox Văn Trung","street_number":"5, Đường Mậu Lương, Phường Kiến Hưng, Quận Hà Đông, Kiến Hưng","type":"93","longitude":"105.7944989"},"way_id":600028575}
{"request":{"street":"7, Đường Mậu Lương, Phường Kiến Hưng, Quận Hà Đông, Kiến Hưng","latitude":"20.9563975","name":"Phòng Khám Răng Hàm Mặt - Bác Sỹ Đỗ Đức Khâm","street_number":"7, Đường Mậu Lương, Phường Kiến Hưng, Quận Hà Đông, Kiến Hưng","type":"4","longitude":"105.7945067"},"way_id":600028575}
{"request":{"street":"Kiến Hưng, Kiến Hưng","latitude":"20.9564323","name":"SalonNail Hà Nguyễn","street_number":"Kiến Hưng, Kiến Hưng","type":"100","longitude":"105.7948560"},"way_id":600028575}
{"request":{"street":"Số 11, LK10 Khu Đấu Giá, Mậu Lương","latitude":"20.9556333","name":"Đại lý phân phối: Dây cáp điện Cadisun, Dây cáp điện Ls vina, Dây cáp điện Cadivi, Dây cáp điện Goldcup, Dây cáp điện Sh vina, Dây cáp điện Thịnh phát, Dây cáp điện Hàn quốc, Mua bán thanh lý dây cáp điện \"Công ty cổ phần công nghiệp G7 Vina\"","street_number":"Số 11, LK10 Khu Đấu Giá, Mậu Lương","type":"93","longitude":"105.7945261"},"way_id":600028575}
{"request":{"street":"1, Đường Mậu Lương, Phường Kiến Hưng, Quận Hà Đông, Kiến Hưng","latitude":"20.9564163","name":"Văn Phòng Tư Vấn Nhà Đất Nhị Tú","street_number":"1, Đường Mậu Lương, Phường Kiến Hưng, Quận Hà Đông, Kiến Hưng","type":"114","longitude":"105.7944023"},"way_id":600028575}
{"request":{"street":"86 Mậu Lương, Kiến Hưng","latitude":"20.9565125","name":"Hoán Mai","street_number":"86 Mậu Lương, Kiến Hưng","type":"114","longitude":"105.7947023"},"way_id":600028575}
{"request":{"street":"Tân Triều","latitude":"20.9600223","name":"Cty Eco Green Plastic","street_number":"Tân Triều","type":"114","longitude":"105.7997463"},"way_id":599518219}
{"request":{"street":"Khu đô thị Xa La, Hà Đông","latitude":"20.9607743","name":"Teka Hà Nội - Phân phối dầu nhớt","street_number":"Khu đô thị Xa La, Hà Đông","type":"114","longitude":"105.7996350"},"way_id":599518219}
{"request":{"street":"CT6 Phố Xa La, P. Phúc La","latitude":"20.9607989","name":"Vest trẻ em đẹp","street_number":"CT6 Phố Xa La, P. Phúc La","type":"93","longitude":"105.7996546"},"way_id":599518219}
{"request":{"street":"2813, CT6B, Chung cư cao cấp và thương mại Bemes, Tân Triều","latitude":"20.9604446","name":"Công ty TNHH TMC ( CS3) - TMC CO., LTD (CS3)","street_number":"2813, CT6B, Chung cư cao cấp và thương mại Bemes, Tân Triều","type":"114","longitude":"105.7997306"},"way_id":599518219}
{"request":{"street":"Tân Triều","latitude":"20.9605799","name":"Kho Đại Thanh EVN-Hà Nội","street_number":"Tân Triều","type":"126","longitude":"105.7999368"},"way_id":599518219}
{"request":{"street":"undefined","latitude":"20.9601250","name":"Mẹ Bé Thỏ - Chuyên Vòng Dâu tằm cho bé.","street_number":"undefined","type":"93","longitude":"105.7996884"},"way_id":599518219}
{"request":{"street":"CT6 Bemes, Đường tỉnh 70A, Tân Triều","latitude":"20.9604530","name":"Nhà Thuốc Hương Giang","street_number":"CT6 Bemes, Đường tỉnh 70A, Tân Triều","type":"93","longitude":"105.7999810"},"way_id":599518219}
{"request":{"street":"undefined","latitude":"20.9599903","name":"Công Ty Cổ Phần KST Viet Nam","street_number":"undefined","type":"114","longitude":"105.7997292"},"way_id":599518219}
{"request":{"street":"Tân Triều","latitude":"20.9607687","name":"Kho Đại Thanh - EVN HANOI","street_number":"Tân Triều","type":"114","longitude":"105.8000639"},"way_id":599518219}
{"request":{"street":"Tân Triều","latitude":"20.9605839","name":"Cafe thiện","street_number":"Tân Triều","type":"52","longitude":"105.8000960"},"way_id":599518219}
{"request":{"street":"CT6, Khu đô thị Xa La","latitude":"20.9602285","name":"Quán Tiên Mẩu","street_number":"CT6, Khu đô thị Xa La","type":"93","longitude":"105.8000029"},"way_id":599518219}
{"request":{"street":"36 Cầu Bươu, Km số 3, P. Kiến Hưng Q","latitude":"20.9610962","name":"Điện máy xanh","street_number":"36 Cầu Bươu, Km số 3, P. Kiến Hưng Q","type":"93","longitude":"105.7998427"},"way_id":599518219}
{"request":{"street":"Kiot31 chung cư ct6b, Đường tỉnh 70, Tân Triều","latitude":"20.9602194","name":"Tạp hóa số 7 biển đông","street_number":"Kiot31 chung cư ct6b, Đường tỉnh 70, Tân Triều","type":"93","longitude":"105.8000088"},"way_id":599518219}
{"request":{"street":"132 Đường Cầu Bươu","latitude":"20.9602233","name":"Chung Cư CT6B Xala","street_number":"132 Đường Cầu Bươu","type":"114","longitude":"105.8000276"},"way_id":599518219}
{"request":{"street":"CT6A, Khu Đô Thị Xa La, Ki Ốt 9","latitude":"20.9603700","name":"Hair Salon Anh Nghĩa","street_number":"CT6A, Khu Đô Thị Xa La, Ki Ốt 9","type":"100","longitude":"105.8001000"},"way_id":599518219}
{"request":{"street":"72, Khu Cầu Bươu, Xã Tả Thanh Oai, Huyện Thanh Trì, Thành Phố Hà Nội, Tân Triều","latitude":"20.9605026","name":"Cửa Hàng Máy Lọc Nước Hoàng Dũng","street_number":"72, Khu Cầu Bươu, Xã Tả Thanh Oai, Huyện Thanh Trì, Thành Phố Hà Nội, Tân Triều","type":"93","longitude":"105.8001404"},"way_id":599518219}
{"request":{"street":"86 Đường Cầu Bươu, Tân Triều","latitude":"20.9603885","name":"Trung Tâm Bảo Dưỡng Sửa Chữa Xe Máy Thái Lan Motor 2","street_number":"86 Đường Cầu Bươu, Tân Triều","type":"108","longitude":"105.8001234"},"way_id":599518219}
{"request":{"street":"CT6C Xa La, Tân Triều","latitude":"20.9599542","name":"Thăng Long Group","street_number":"CT6C Xa La, Tân Triều","type":"114","longitude":"105.7997870"},"way_id":599518219}
{"request":{"street":"Vạn Phúc","latitude":"20.9771549","name":"Thuoc Bo Ba Bau Prenatal","street_number":"Vạn Phúc","type":"93","longitude":"105.7780402"},"way_id":897081570}
{"request":{"street":"Vạn Phúc","latitude":"20.9777400","name":"Son Nen Nha Xuong","street_number":"Vạn Phúc","type":"114","longitude":"105.7778223"},"way_id":897081570}
{"request":{"street":"51 Ngô Thì Sỹ, Vạn Phúc","latitude":"20.9773918","name":"Cửa Hàng Thủy Hạnh Silk","street_number":"51 Ngô Thì Sỹ, Vạn Phúc","type":"93","longitude":"105.7785204"},"way_id":897081570}
{"request":{"street":"33 Ngô Thì Sỹ, Ngõ 20 Đường Lê Trọng Tấn, Vạn Phúc","latitude":"20.9771783","name":"Trung Tín service","street_number":"33 Ngô Thì Sỹ, Ngõ 20 Đường Lê Trọng Tấn, Vạn Phúc","type":"114","longitude":"105.7777383"},"way_id":897081570}
{"request":{"street":"Unnamed Road, Hà Đông","latitude":"20.9774768","name":"CÔNG TY TNHH TƯ VẤN KIẾN TRÚC VÀ XÂY DỰNG HTA","street_number":"Unnamed Road, Hà Đông","type":"114","longitude":"105.7777282"},"way_id":897081570}
{"request":{"street":"Ngô Thì Sỹ, Vạn Phúc","latitude":"20.9770331","name":"Cửa hàng lụa Hà Silk","street_number":"Ngô Thì Sỹ, Vạn Phúc","type":"93","longitude":"105.7779028"},"way_id":897081570}
{"request":{"street":"Số 10 Ngõ 35 Phố Ngô Thì Sỹ, Vạn Phúc","latitude":"20.9775523","name":"Tổng thể cửa Winup","street_number":"Số 10 Ngõ 35 Phố Ngô Thì Sỹ, Vạn Phúc","type":"93","longitude":"105.7778490"},"way_id":897081570}
{"request":{"street":"68, Ngô Thì Sĩ, Quận Hà Đông, Thành Phố Hà Nội, Vạn Phúc","latitude":"20.9770150","name":"Cơ Sở Sản Xuất Khung Nhôm Kính Ngọc Hà","street_number":"68, Ngô Thì Sĩ, Quận Hà Đông, Thành Phố Hà Nội, Vạn Phúc","type":"93","longitude":"105.7779080"},"way_id":897081570}
{"request":{"street":"Vietnam","latitude":"20.9770163","name":"Trang Beauty Nail-Mi-Spa","street_number":"Vietnam","type":"84","longitude":"105.7779323"},"way_id":897081570}
{"request":{"street":"37, Ngô Thì Sĩ, Quận Hà Đông, Thành Phố Hà Nội, Vạn Phúc","latitude":"20.9771696","name":"Cửa Hàng Tự Chọn Hà Dân","street_number":"37, Ngô Thì Sĩ, Quận Hà Đông, Thành Phố Hà Nội, Vạn Phúc","type":"93","longitude":"105.7781051"},"way_id":897081570}
{"request":{"street":"47 Ngô Thì Sỹ, Vạn Phúc","latitude":"20.9770431","name":"Cơ Sở Inox Ngọc Thức","street_number":"47 Ngô Thì Sỹ, Vạn Phúc","type":"93","longitude":"105.7780194"},"way_id":897081570}
{"request":{"street":"ngõ 35 Ngô Thì Sỹ, Vạn Phúc","latitude":"20.9769980","name":"Yến Vinh Fast Food","street_number":"ngõ 35 Ngô Thì Sỹ, Vạn Phúc","type":"50","longitude":"105.7779792"},"way_id":897081570}
{"request":{"street":"81 Phố Ngô Thì Sỹ, Vạn Phúc, Hà Nội, Việt Nam","latitude":"20.9769490","name":"May balo quảng cáo","street_number":"81 Phố Ngô Thì Sỹ, Vạn Phúc, Hà Nội, Việt Nam","type":"13","longitude":"105.7779100"},"way_id":897081570}
{"request":{"street":"21 Ngô Thì Sỹ, Vạn Phúc","latitude":"20.9769279","name":"Nhà May Gia Linh","street_number":"21 Ngô Thì Sỹ, Vạn Phúc","type":"114","longitude":"105.7778853"},"way_id":897081570}
{"request":{"street":"79 phố Ngô Thì Sỹ, phường Vạn Phúc, Quận Hà Đông","latitude":"20.9769100","name":"May Trọng Phát","street_number":"79 phố Ngô Thì Sỹ, phường Vạn Phúc, Quận Hà Đông","type":"93","longitude":"105.7778560"},"way_id":897081570}
{"request":{"street":"28 Ngõ 35 Phố Ngô Thì Sỹ, Vạn Phúc","latitude":"20.9776621","name":"Công ty CP Vview Việt Nam","street_number":"28 Ngõ 35 Phố Ngô Thì Sỹ, Vạn Phúc","type":"114","longitude":"105.7778177"},"way_id":897081570}
{"request":{"street":"33 Ngô Thì Sỹ, Vạn Phúc","latitude":"20.9768968","name":"Duy Đạo Motor","street_number":"33 Ngô Thì Sỹ, Vạn Phúc","type":"108","longitude":"105.7777713"},"way_id":897081570}
{"request":{"street":"undefined","latitude":"20.9800178","name":"16 Phố Lụa","street_number":"undefined","type":"114","longitude":"105.7746516"},"way_id":675323296}
{"request":{"street":"Vạn Phúc","latitude":"20.9804500","name":"Template123","street_number":"Vạn Phúc","type":"114","longitude":"105.7748430"},"way_id":675323296}
{"request":{"street":"Phố Lụa, Vạn Phúc","latitude":"20.9798781","name":"Cửa Hàng Lụa Cát Quý","street_number":"Phố Lụa, Vạn Phúc","type":"93","longitude":"105.7744038"},"way_id":675323296}
{"request":{"street":"Đường Vạn Phúc, Vạn Phúc","latitude":"20.9801035","name":"Ngân Hàng Chính Sách Xã Hội (Vbsp) - Đgd Phường Vạn Phúc","street_number":"Đường Vạn Phúc, Vạn Phúc","type":"59","longitude":"105.7748437"},"way_id":675323296}
{"request":{"street":"35 Phố Lụa, Vạn Phúc","latitude":"20.9800455","name":"Công Ty Cổ Phần Giao Nhận Hàng Không Vasco","street_number":"35 Phố Lụa, Vạn Phúc","type":"114","longitude":"105.7747355"},"way_id":675323296}
{"request":{"street":"Phố Lụa, Vạn Phúc","latitude":"20.9800234","name":"Bưu Điện Xã Vạn Phúc","street_number":"Phố Lụa, Vạn Phúc","type":"73","longitude":"105.7747257"},"way_id":675323296}
{"request":{"street":"Khối Chiến Thắng, Vạn Phúc","latitude":"20.9799182","name":"Bưu điện văn hóa Vạn Phúc","street_number":"Khối Chiến Thắng, Vạn Phúc","type":"73","longitude":"105.7747676"},"way_id":675323296}
{"request":{"street":"Đường Vạn Phúc, Vạn Phúc","latitude":"20.9800634","name":"Văn Phòng Hiệp Hội Dệt Lụa Tơ Tằm \u0026 Hiệp Hội Làng Nghề Vạn Phúc","street_number":"Đường Vạn Phúc, Vạn Phúc","type":"114","longitude":"105.7746613"},"way_id":675323296}
{"request":{"street":"Đường Vạn Phúc, Vạn Phúc","latitude":"20.9798888","name":"UBND phường Vạn Phúc","street_number":"Đường Vạn Phúc, Vạn Phúc","type":"128","longitude":"105.7749319"},"way_id":675323296}
{"request":{"street":"20 Phố Lụa, Vạn Phúc","latitude":"20.9801517","name":"Công Ty Cổ Phần Thuận Thiên Đường","street_number":"20 Phố Lụa, Vạn Phúc","type":"114","longitude":"105.7750243"},"way_id":675323296}
{"request":{"street":"31 Phố Lụa, Vạn Phúc","latitude":"20.9800224","name":"Công Ty Tnhh Dịch Vụ Ăn Uống Mai Hương","street_number":"31 Phố Lụa, Vạn Phúc","type":"50","longitude":"105.7746341"},"way_id":675323296}
{"request":{"street":"Ao Đình, Phường Dương Nội, Quận Hà Đông, Thành Phố Hà Nội, Vạn Phúc","latitude":"20.9802541","name":"Cửa Hàng Điện Máy Thành Nhàn","street_number":"Ao Đình, Phường Dương Nội, Quận Hà Đông, Thành Phố Hà Nội, Vạn Phúc","type":"93","longitude":"105.7748682"},"way_id":675323296}
{"request":{"street":"Ngõ 31 Phố Lụa, Vạn Phúc","latitude":"20.9800086","name":"Dịch Vụ Máy In 24h","street_number":"Ngõ 31 Phố Lụa, Vạn Phúc","type":"114","longitude":"105.7746236"},"way_id":675323296}
{"request":{"street":"Vạn Phúc","latitude":"20.9801757","name":"Vườn hoa Vạn Phúc","street_number":"Vạn Phúc","type":"54","longitude":"105.7745947"},"way_id":675323296}
{"request":{"street":"7 Phố Lụa, Vạn Phúc","latitude":"20.9803139","name":"Nhà Thuốc Thúy Hằng","street_number":"7 Phố Lụa, Vạn Phúc","type":"93","longitude":"105.7747632"},"way_id":675323296}
{"request":{"street":"203 Dịch Vụ 4 Hàng Bè, Kiến Hưng","latitude":"20.9508716","name":"Nguyễn Đăng Khởi","street_number":"203 Dịch Vụ 4 Hàng Bè, Kiến Hưng","type":"24","longitude":"105.7890641"},"way_id":683254337}
{"request":{"street":"Unnamed Road","latitude":"20.9507391","name":"Trung tâm Anh ngữ EFA Cơ sở 2","street_number":"Unnamed Road","type":"5","longitude":"105.7888257"},"way_id":683254337}
{"request":{"street":"Phố Hoàng Công, Kiến Hưng","latitude":"20.9504992","name":"Công ty May Thành Tâm","street_number":"Phố Hoàng Công, Kiến Hưng","type":"114","longitude":"105.7893363"},"way_id":683254337}
{"request":{"street":"Khu đô thị Mậu Lương","latitude":"20.9505732","name":"Công Ti TNHH May Thành Tâm","street_number":"Khu đô thị Mậu Lương","type":"114","longitude":"105.7893668"},"way_id":683254337}
{"request":{"street":"Dịch Vụ 1 Hàng Bè, Kiến Hưng","latitude":"20.9508555","name":"Nam Trần Nhôm Kính-Cửa Thủy Lực","street_number":"Dịch Vụ 1 Hàng Bè, Kiến Hưng","type":"114","longitude":"105.7892762"},"way_id":683254337}
{"request":{"street":"Unnamed Road, Khu đô thị Mậu Lương","latitude":"20.9509425","name":"Xôi Gà Ông Tú","street_number":"Unnamed Road, Khu đô thị Mậu Lương","type":"50","longitude":"105.7890715"},"way_id":683254337}
{"request":{"street":"Liền kề 319 Dịch vụ 7 Khu Hàng Bè, Mậu Lương, Kiến Hưng","latitude":"20.9504990","name":"Trung tâm Anh ngữ EFA CS2","street_number":"Liền kề 319 Dịch vụ 7 Khu Hàng Bè, Mậu Lương, Kiến Hưng","type":"5","longitude":"105.7887490"},"way_id":683254337}
{"request":{"street":"Unnamed Road, Kiến Hưng","latitude":"20.9510181","name":"Điện Lạnh Bảo Ngọc","street_number":"Unnamed Road, Kiến Hưng","type":"114","longitude":"105.7890459"},"way_id":683254337}
{"request":{"street":"LK 27 - DV01, Khu đô thị Mậu Lương","latitude":"20.9510080","name":"Nội Thất Tuấn Thành","street_number":"LK 27 - DV01, Khu đô thị Mậu Lương","type":"93","longitude":"105.7889440"},"way_id":683254337}
{"request":{"street":"Dịch Vụ 1 Hàng Bè, Kiến Hưng","latitude":"20.9509696","name":"Mầm Non Ngôi Nhà Ước Mơ","street_number":"Dịch Vụ 1 Hàng Bè, Kiến Hưng","type":"114","longitude":"105.7892840"},"way_id":683254337}
{"request":{"street":"Dịch Vụ 1 Hàng Bè, Kiến Hưng","latitude":"20.9509870","name":"Thanh Hoàng Cơ Khí Tổng Hợp","street_number":"Dịch Vụ 1 Hàng Bè, Kiến Hưng","type":"114","longitude":"105.7892738"},"way_id":683254337}
{"request":{"street":"21dv1 Hàng Bè, Mậu Lương","latitude":"20.9511222","name":"Nhà hàng Trung Thông","street_number":"21dv1 Hàng Bè, Mậu Lương","type":"50","longitude":"105.7888278"},"way_id":683254337}
{"request":{"street":"497 Dịch vụ 10, Kiến Hưng","latitude":"20.9506840","name":"Công ty Cổ phần Môi trường Xây dựng Asia","street_number":"497 Dịch vụ 10, Kiến Hưng","type":"114","longitude":"105.7896298"},"way_id":683254337}
{"request":{"street":"497 Dịch vụ 10, Kiến Hưng","latitude":"20.9506991","name":"Công Ty CP Cơ Điện Môi Trường Alpha Vina","street_number":"497 Dịch vụ 10, Kiến Hưng","type":"114","longitude":"105.7896348"},"way_id":683254337}
{"request":{"street":"LK-240, DV 04, Khu đô thị Mậu Lương","latitude":"20.9506434","name":"Công Ty Cổ Phần Môi Trường Xây Dựng Asia","street_number":"LK-240, DV 04, Khu đô thị Mậu Lương","type":"114","longitude":"105.7896508"},"way_id":683254337}
{"request":{"street":"Khu đô thị Mậu Lương","latitude":"20.9506693","name":"Kho vật liệu lọc nước Mậu Lương","street_number":"Khu đô thị Mậu Lương","type":"126","longitude":"105.7884689"},"way_id":683254337}
{"request":{"street":"Hà Đông","latitude":"20.9762988","name":"HM 1986 Coffee","street_number":"Hà Đông","type":"52","longitude":"105.7762054"},"way_id":685031829}
{"request":{"street":"undefined","latitude":"20.9762814","name":"VẠN PHÚC COFFEE","street_number":"undefined","type":"114","longitude":"105.7762703"},"way_id":685031829}
{"request":{"street":"430, Vạn Phúc, Phường Vạn Phúc, Quận Hà Đông, Thành Phố Hà Nội, Vạn Phúc","latitude":"20.9763419","name":"Công Ty TNHH Xuất Nhập Khẩu Tep Việt Nam","street_number":"430, Vạn Phúc, Phường Vạn Phúc, Quận Hà Đông, Thành Phố Hà Nội, Vạn Phúc","type":"93","longitude":"105.7760185"},"way_id":685031829}
{"request":{"street":"8 Đường Vạn Phúc, Vạn Phúc","latitude":"20.9762852","name":"Công Ty Tnhh Thương Mại Sản Xuất Phụ Kiện Ngành Cửa Tân Hiệp Phát","street_number":"8 Đường Vạn Phúc, Vạn Phúc","type":"114","longitude":"105.7763114"},"way_id":685031829}
{"request":{"street":"7 Đường Vạn Phúc, Vạn Phúc","latitude":"20.9762285","name":"Virgo Chè Xôi - Số 7 Vạn Phúc","street_number":"7 Đường Vạn Phúc, Vạn Phúc","type":"93","longitude":"105.7763496"},"way_id":685031829}
{"request":{"street":"Số 11 Đường Vạn Phúc, Vạn Phúc","latitude":"20.9763419","name":"Công Ty Cổ Phần Y Tế Vạn Phúc Hà Nội","street_number":"Số 11 Đường Vạn Phúc, Vạn Phúc","type":"114","longitude":"105.7762733"},"way_id":685031829}
{"request":{"street":"số 7 Đường Vạn Phúc, Vạn Phúc","latitude":"20.9762159","name":"Spa T\u0026T (Thoa)","street_number":"số 7 Đường Vạn Phúc, Vạn Phúc","type":"4","longitude":"105.7763580"},"way_id":685031829}
{"request":{"street":"430 Đường Vạn Phúc, Vạn Phúc","latitude":"20.9763669","name":"Ngõ Cà Phê","street_number":"430 Đường Vạn Phúc, Vạn Phúc","type":"52","longitude":"105.7759505"},"way_id":685031829}
{"request":{"street":"Số 6 Lương Thực, Đường Cầu Am, Quận Hà Đông,Hà Nội,Việt Nam, ĐT70A Đường Vạn Phúc, Vạn Phúc","latitude":"20.9763181","name":"Cửa hàng kính mắt Quang Thọ","street_number":"Số 6 Lương Thực, Đường Cầu Am, Quận Hà Đông,Hà Nội,Việt Nam, ĐT70A Đường Vạn Phúc, Vạn Phúc","type":"93","longitude":"105.7763578"},"way_id":685031829}
{"request":{"street":"Đường Vạn Phúc, Vạn Phúc","latitude":"20.9763118","name":"Công Ty Cp Lương Thực Hà Sơn Bình","street_number":"Đường Vạn Phúc, Vạn Phúc","type":"114","longitude":"105.7763779"},"way_id":685031829}
{"request":{"street":"Số 1 Đường Số 5, Hiệp Bình Phước","latitude":"20.9760817","name":"Công Ty Cổ Phần Tư Vấn Và Xây Lắp Công Trình Sài Gòn Mê Kông","street_number":"Số 1 Đường Số 5, Hiệp Bình Phước","type":"114","longitude":"105.7764107"},"way_id":685031829}
{"request":{"street":"Vietnam","latitude":"20.9764514","name":"Đại Lý Xổ Số Điện Toán","street_number":"Vietnam","type":"114","longitude":"105.7761458"},"way_id":685031829}
{"request":{"street":"4 Đường Vạn Phúc, Vạn Phúc","latitude":"20.9763519","name":"Dịch Vụ Cầm Đồ Tuấn Nguyên","street_number":"4 Đường Vạn Phúc, Vạn Phúc","type":"114","longitude":"105.7763725"},"way_id":685031829}
{"request":{"street":"Số 3 Đường Vạn Phúc, Vạn Phúc","latitude":"20.9760286","name":"Gia dụng Minh Ngọc","street_number":"Số 3 Đường Vạn Phúc, Vạn Phúc","type":"93","longitude":"105.7763985"},"way_id":685031829}
{"request":{"street":"123 Vạn Phúc Hà Đông","latitude":"20.9803060","name":"Khung Ảnh Treo Tường Mylycat.com","street_number":"123 Vạn Phúc Hà Đông","type":"93","longitude":"105.7711660"},"way_id":685031828}
{"request":{"street":"Số 127 Đường Vạn Phúc, Vạn Phúc","latitude":"20.9806729","name":"Điện máy Vạn Phúc","street_number":"Số 127 Đường Vạn Phúc, Vạn Phúc","type":"93","longitude":"105.7715311"},"way_id":685031828}
{"request":{"street":"Khối Độc Lập, Phường Vạn Phúc, Quận Hà Đông, Vạn Phúc","latitude":"20.9805312","name":"Công Ty TNHH Nội Thất Ha\u0026D","street_number":"Khối Độc Lập, Phường Vạn Phúc, Quận Hà Đông, Vạn Phúc","type":"114","longitude":"105.7715589"},"way_id":685031828}
{"request":{"street":"123 Đường Vạn Phúc, Vạn Phúc","latitude":"20.9807172","name":"Công ty Cổ phần TDV Việt Nam","street_number":"123 Đường Vạn Phúc, Vạn Phúc","type":"93","longitude":"105.7715614"},"way_id":685031828}
{"request":{"street":"129 Đường tỉnh 70A, Vạn Phúc","latitude":"20.9808126","name":"CỬA HÀNG ĐIỆN MÁY TUẤN QUỲNH","street_number":"129 Đường tỉnh 70A, Vạn Phúc","type":"93","longitude":"105.7715245"},"way_id":685031828}
{"request":{"street":"40 Đường Vạn Phúc, Vạn Phúc","latitude":"20.9808398","name":"Nhà Nghỉ Hoa Cỏ","street_number":"40 Đường Vạn Phúc, Vạn Phúc","type":"24","longitude":"105.7714909"},"way_id":685031828}
{"request":{"street":"5 Đường Vạn Phúc, Vạn Phúc","latitude":"20.9806094","name":"Thời Trang Tóc Minh Luật","street_number":"5 Đường Vạn Phúc, Vạn Phúc","type":"100","longitude":"105.7716787"},"way_id":685031828}
{"request":{"street":"Đường Vạn Phúc, Vạn Phúc","latitude":"20.9806995","name":"Cửa Hàng Tủ Bếp Toàn Thắng","street_number":"Đường Vạn Phúc, Vạn Phúc","type":"93","longitude":"105.7716626"},"way_id":685031828}
{"request":{"street":"15 Đường Vạn Phúc, Vạn Phúc","latitude":"20.9807747","name":"Nhà Phân Phối Máy Điều Hòa Thu Thủy","street_number":"15 Đường Vạn Phúc, Vạn Phúc","type":"93","longitude":"105.7716143"},"way_id":685031828}
{"request":{"street":"15 Đường Vạn Phúc, Vạn Phúc","latitude":"20.9807496","name":"Nhà May Kim Thoa","street_number":"15 Đường Vạn Phúc, Vạn Phúc","type":"114","longitude":"105.7716357"},"way_id":685031828}
{"request":{"street":"Số 117 Đường Vạn Phúc, Vạn Phúc","latitude":"20.9806750","name":"Văn phòng luật sư Hoàng Đan","street_number":"Số 117 Đường Vạn Phúc, Vạn Phúc","type":"114","longitude":"105.7716791"},"way_id":685031828}
{"request":{"street":"Số 111 Đường Vạn Phúc, Vạn Phúc","latitude":"20.9805567","name":"Trung tâm trang trí nội thất Rèm Cửa Bảo Khánh","street_number":"Số 111 Đường Vạn Phúc, Vạn Phúc","type":"93","longitude":"105.7716867"},"way_id":685031828}
{"request":{"street":"11 Đường Vạn Phúc, Vạn Phúc","latitude":"20.9807046","name":"Cơ Sở Đá Ốp Lát Biển Đông","street_number":"11 Đường Vạn Phúc, Vạn Phúc","type":"93","longitude":"105.7716733"},"way_id":685031828}
{"request":{"street":"7 Đường Vạn Phúc, Vạn Phúc","latitude":"20.9806244","name":"Quán Phở Phương Giang","street_number":"7 Đường Vạn Phúc, Vạn Phúc","type":"50","longitude":"105.7716948"},"way_id":685031828}
{"request":{"street":"Tòa Nhà CT6C, Phường Kiến Hưng, Quận Hà Đông","latitude":"20.9442035","name":"Công Ty Cổ Phần Thiết Bị Và Công Nghệ Etco Việt Nam","street_number":"Tòa Nhà CT6C, Phường Kiến Hưng, Quận Hà Đông","type":"93","longitude":"105.7919770"},"way_id":595927280}
{"request":{"street":"Hữu Hoà","latitude":"20.9447696","name":"shop phuongngoc5a","street_number":"Hữu Hoà","type":"93","longitude":"105.7922185"},"way_id":595927280}
{"request":{"street":"Khu đô thị Mậu Lương","latitude":"20.9440954","name":"Sửa chữa cửa cuốn","street_number":"Khu đô thị Mậu Lương","type":"114","longitude":"105.7916353"},"way_id":595927280}
{"request":{"street":"Hữu Hoà","latitude":"20.9439858","name":"Bs Ngô Minh Đức","street_number":"Hữu Hoà","type":"4","longitude":"105.7918199"},"way_id":595927280}
{"request":{"street":"Hữu Hoà","latitude":"20.9441214","name":"Bác sĩ Đức vbqg","street_number":"Hữu Hoà","type":"4","longitude":"105.7918881"},"way_id":595927280}
{"request":{"street":"Hữu Hòa, Hữu Hoà","latitude":"20.9441374","name":"Siêu thị Hồng Lâm","street_number":"Hữu Hòa, Hữu Hoà","type":"93","longitude":"105.7919783"},"way_id":595927280}
{"request":{"street":"Unnamed Road, Hữu Hoà","latitude":"20.9433047","name":"Công ty Xây Dựng Tuấn Dương","street_number":"Unnamed Road, Hữu Hoà","type":"114","longitude":"105.7910027"},"way_id":595927280}
{"request":{"street":"số 73 tổ 9, Mậu Lương","latitude":"20.9575300","name":"Hạnhh Mỹ Store","street_number":"số 73 tổ 9, Mậu Lương","type":"93","longitude":"105.7923840"},"way_id":599536688}
{"request":{"street":"Vietnam","latitude":"20.9576637","name":"Nhà Thuốc Minh Khánh","street_number":"Vietnam","type":"93","longitude":"105.7928304"},"way_id":599536688}
{"request":{"street":"82 tổ 9, Kiến Hưng","latitude":"20.9577107","name":"Tiện ích Lâm Phương","street_number":"82 tổ 9, Kiến Hưng","type":"93","longitude":"105.7928483"},"way_id":599536688}
{"request":{"street":"chợ Mậu Lương, 109 tổ 9 sau nhà văn hóa tổ 9","latitude":"20.9574596","name":"Kalhome Công Ty Cổ Phần Máy Lọc Nước","street_number":"chợ Mậu Lương, 109 tổ 9 sau nhà văn hóa tổ 9","type":"114","longitude":"105.7922915"},"way_id":599536688}
{"request":{"street":"tổ 9 Mậu Lương, Kiến Hưng","latitude":"20.9573995","name":"Cửa Hàng Gas Hà Thành BestHouse số 5","street_number":"tổ 9 Mậu Lương, Kiến Hưng","type":"93","longitude":"105.7922713"},"way_id":599536688}
{"request":{"street":"chợ Mậu Lương, 109 tổ 9 sau nhà văn hóa tổ 9","latitude":"20.9574752","name":"Nhà Mèo Hương","street_number":"chợ Mậu Lương, 109 tổ 9 sau nhà văn hóa tổ 9","type":"114","longitude":"105.7922257"},"way_id":599536688}
{"request":{"street":"undefined","latitude":"20.9571053","name":"Cửa hàng gas Mậu Lương - Gas ABC","street_number":"undefined","type":"93","longitude":"105.7924371"},"way_id":599536688}
{"request":{"street":"Đường Vũ Văn Trường, Mậu Lương","latitude":"20.9572557","name":"Chợ Mậu Lương","street_number":"Đường Vũ Văn Trường, Mậu Lương","type":"114","longitude":"105.7931361"},"way_id":599536688}
{"request":{"street":"68b Mậu Lương, Kiến Hưng","latitude":"20.9573563","name":"Đồng Phục Hoàng Yến","street_number":"68b Mậu Lương, Kiến Hưng","type":"93","longitude":"105.7920836"},"way_id":599536688}
{"request":{"street":"số 73 tổ 9, Thanh Liệt","latitude":"20.9580051","name":"ECO HAIR 73 Tổ 9 Mậu Lương","street_number":"số 73 tổ 9, Thanh Liệt","type":"93","longitude":"105.7924314"},"way_id":599536688}
{"request":{"street":"Mậu Lương","latitude":"20.9569300","name":"Cửa Hàng Phụ Kiện ĐT A Cơ","street_number":"Mậu Lương","type":"93","longitude":"105.7923000"},"way_id":599536688}
{"request":{"street":"67 Mậu Lương, Kiến Hưng","latitude":"20.9569229","name":"Giặt là Thanh Hương","street_number":"67 Mậu Lương, Kiến Hưng","type":"93","longitude":"105.7922469"},"way_id":599536688}
{"request":{"street":"Tòa Nhà HH01B, Khu Đô Thị Thanh","latitude":"20.9571175","name":"CỬA NHÔM KÍNH XINGFA - THỦ ĐÔ GLASS","street_number":"Tòa Nhà HH01B, Khu Đô Thị Thanh","type":"93","longitude":"105.7920287"},"way_id":599536688}
{"request":{"street":"23, Đường Mậu Lương Phường Kiến Hưng, Quận Hà Đông, Thành Phố Hà Nội, Kiến Hưng","latitude":"20.9570845","name":"Tiệm Cắt Tóc Thời Trang Thưởng Ngân","street_number":"23, Đường Mậu Lương Phường Kiến Hưng, Quận Hà Đông, Thành Phố Hà Nội, Kiến Hưng","type":"100","longitude":"105.7920472"},"way_id":599536688}
{"request":{"street":"Số 64 Mậu Lương, Kiến Hưng","latitude":"20.9568165","name":"Công Ty Cổ Phần Đầu Tư Xây Dựng Zamora Việt Nam","street_number":"Số 64 Mậu Lương, Kiến Hưng","type":"114","longitude":"105.7927529"},"way_id":599536688}
{"request":{"street":"A2, Khu Giãn Dân Mậu Lương Phường Kiến Hưng, Quận Hà Đông, Kiến Hưng","latitude":"20.9567001","name":"Cửa Hàng Gạch Ốp Lát Đức Mạnh","street_number":"A2, Khu Giãn Dân Mậu Lương Phường Kiến Hưng, Quận Hà Đông, Kiến Hưng","type":"93","longitude":"105.7912393"},"way_id":599536678}
{"request":{"street":"Lô 88, Khu Giãn Dân Mậu Lương, Phường Kiến Hưng, Quận Hà Đông, Kiến Hưng","latitude":"20.9565832","name":"Trung Tâm Giao Dịch Bất Động Sản Cát Tường","street_number":"Lô 88, Khu Giãn Dân Mậu Lương, Phường Kiến Hưng, Quận Hà Đông, Kiến Hưng","type":"114","longitude":"105.7912812"},"way_id":599536678}
{"request":{"street":"Kiến Hưng","latitude":"20.9563922","name":"Thực phẩm Thu Dũng","street_number":"Kiến Hưng","type":"93","longitude":"105.7911539"},"way_id":599536678}
{"request":{"street":"undefined","latitude":"20.9565012","name":"ĐẤT NHÀ","street_number":"undefined","type":"114","longitude":"105.7913296"},"way_id":599536678}
{"request":{"street":"3, Khu Giãn Dân Mậu Lương Phường Kiến Hưng, Quận Hà Đông, Kiến Hưng","latitude":"20.9569052","name":"Xưởng Cơ Khí Đình Khánh","street_number":"3, Khu Giãn Dân Mậu Lương Phường Kiến Hưng, Quận Hà Đông, Kiến Hưng","type":"114","longitude":"105.7912244"},"way_id":599536678}
{"request":{"street":"Số 3 Tổ 10 Khu dãn dân, Mậu Lương, P","latitude":"20.9568268","name":"HT SCREEN PRINTING INK","street_number":"Số 3 Tổ 10 Khu dãn dân, Mậu Lương, P","type":"114","longitude":"105.7914620"},"way_id":599536678}
{"request":{"street":"Số 03 Tổ 10","latitude":"20.9568437","name":"HT VIET NAM BUSINESS AND PRODUCTION COMPANY LIMITED","street_number":"Số 03 Tổ 10","type":"114","longitude":"105.7914889"},"way_id":599536678}
{"request":{"street":"Số 3 Tô 10, Kiến Hưng","latitude":"20.9568842","name":"HT Việt Nam","street_number":"Số 3 Tô 10, Kiến Hưng","type":"114","longitude":"105.7914948"},"way_id":599536678}
{"request":{"street":"68, Tổ 10, Khu Giãn Dân Mậu Lương, Phường Kiến Hưng, Quận Hà Đông, Kiến Hưng","latitude":"20.9565873","name":"Đại Lý Gạo Tuấn Minh","street_number":"68, Tổ 10, Khu Giãn Dân Mậu Lương, Phường Kiến Hưng, Quận Hà Đông, Kiến Hưng","type":"114","longitude":"105.7915633"},"way_id":599536678}
{"request":{"street":"12 Mậu Lương, Kiến Hưng","latitude":"20.9567500","name":"Công Ty Cổ Phần Xây Dựng Nam Hải Anh","street_number":"12 Mậu Lương, Kiến Hưng","type":"114","longitude":"105.7915719"},"way_id":599536678}
{"request":{"street":"12 Mậu Lương, Kiến Hưng","latitude":"20.9567359","name":"Cơm Ngon Minh Phúc","street_number":"12 Mậu Lương, Kiến Hưng","type":"50","longitude":"105.7915981"},"way_id":599536678}
{"request":{"street":"Số nhà 96, tổ 10, khu giãn dân, Mậu Lương, Kiến Hưng","latitude":"20.9562881","name":"Công ty Ngân Hà","street_number":"Số nhà 96, tổ 10, khu giãn dân, Mậu Lương, Kiến Hưng","type":"114","longitude":"105.7914399"},"way_id":599536678}
{"request":{"street":"Lk01- L30- ĐG, Mậu Lương, Kiến Hưng","latitude":"20.9565905","name":"Công Ty TNHH TM và XD Tiến Minh","street_number":"Lk01- L30- ĐG, Mậu Lương, Kiến Hưng","type":"93","longitude":"105.7916351"},"way_id":599536678}
{"request":{"street":"47- Tổ 9 Mậu Lương, Kiến Hưng","latitude":"20.9569362","name":"Trà Sữa Trân Châu Đường Đen - Hong Kong","street_number":"47- Tổ 9 Mậu Lương, Kiến Hưng","type":"114","longitude":"105.7915556"},"way_id":599536678}
{"request":{"street":"Tân Triều","latitude":"20.9712048","name":"Tân Triều","street_number":"Tân Triều","type":"2","longitude":"105.8010533"},"way_id":599518228}
{"request":{"street":"2504 CT2, Nam Xa La Building, Phuc La Commune, Ha Dong District, Ha Noi, Viet Na, P. Phúc La","latitude":"20.9601020","name":"Công ty TNHH Công Nghệ và Giải Pháp Giáo Dục Thế Hệ Mới Việt Nam","street_number":"2504 CT2, Nam Xa La Building, Phuc La Commune, Ha Dong District, Ha Noi, Viet Na, P. Phúc La","type":"114","longitude":"105.7943400"},"way_id":599518228}
{"request":{"street":"65 Ngõ 12, Kiến Hưng","latitude":"20.9589264","name":"Vietmax","street_number":"65 Ngõ 12, Kiến Hưng","type":"114","longitude":"105.7957394"},"way_id":599518228}
{"request":{"street":"38, Tổ 3, Phường Kiến Hưng, Quận Hà Đông, P. Phúc La","latitude":"20.9601143","name":"Công Ty Cổ Phần Kiến Trúc Xây Dựng Vina BTN","street_number":"38, Tổ 3, Phường Kiến Hưng, Quận Hà Đông, P. Phúc La","type":"114","longitude":"105.7923692"},"way_id":599518228}
{"request":{"street":"P. Phúc La","latitude":"20.9603783","name":"Diễn Đàn Thang Máy Việt Nam","street_number":"P. Phúc La","type":"114","longitude":"105.7948728"},"way_id":599518228}
{"request":{"street":"Số 273A tổ 11, Mậu Lương, Kiến Hưng","latitude":"20.9586035","name":"Diệu Linh teacher","street_number":"Số 273A tổ 11, Mậu Lương, Kiến Hưng","type":"114","longitude":"105.7937601"},"way_id":599518228}
{"request":{"street":"Mậu Lương","latitude":"20.9584435","name":"Tuyên Bùi Home","street_number":"Mậu Lương","type":"24","longitude":"105.7934352"},"way_id":599518228}
{"request":{"street":"273, Mậu Lương","latitude":"20.9591144","name":"LỚP HỌC TOÁN-LÝ Kiến Hưng Hà Đông","street_number":"273, Mậu Lương","type":"114","longitude":"105.7936841"},"way_id":599518228}
{"request":{"street":"Dịch vụ Sinh thái Nguyễn Nhậm, Kiến Hưng","latitude":"20.9581276","name":"pham van sao","street_number":"Dịch vụ Sinh thái Nguyễn Nhậm, Kiến Hưng","type":"93","longitude":"105.7933942"},"way_id":599518228}
{"request":{"street":"Mậu Lương","latitude":"20.9585166","name":"biển chức danh","street_number":"Mậu Lương","type":"114","longitude":"105.7944721"},"way_id":599518228}
{"request":{"street":"17-18, Khu Đấu Giá Đất Mậu Lương, Mậu Lương, Phường Kiến Hưng, Quận Hà Đông, Thành Phố Hà Nội, Kiến Hưng","latitude":"20.9587746","name":"Công Ty Cổ Phần Đầu Tư Xây Dựng Và Phát Triển Thương Mại 379","street_number":"17-18, Khu Đấu Giá Đất Mậu Lương, Mậu Lương, Phường Kiến Hưng, Quận Hà Đông, Thành Phố Hà Nội, Kiến Hưng","type":"114","longitude":"105.7944828"},"way_id":599518228}
{"request":{"street":"Đa Sỹ, Kiến Hưng","latitude":"20.9578456","name":"Cửa Hàng Tạo Mẫu Tóc Minh Phượng","street_number":"Đa Sỹ, Kiến Hưng","type":"114","longitude":"105.7936183"},"way_id":599518228}
{"request":{"street":"Kiến Hưng","latitude":"20.9548347","name":"Watercon - công ty thủy châu","street_number":"Kiến Hưng","type":"93","longitude":"105.7936905"},"way_id":599197644}
{"request":{"street":"26 Liền kề 14, Mậu Lương, Kiến Hưng","latitude":"20.9549723","name":"Vua Kem Thủy Châu","street_number":"26 Liền kề 14, Mậu Lương, Kiến Hưng","type":"13","longitude":"105.7937372"},"way_id":599197644}
{"request":{"street":"24 LK 15, Khu đô thị Mậu Lương","latitude":"20.9546195","name":"Công ty TNHh Adelaide việt nam","street_number":"24 LK 15, Khu đô thị Mậu Lương","type":"114","longitude":"105.7940742"},"way_id":599197644}
{"request":{"street":"Lô 5 liền kề, 14 Mậu Lương, Kiến Hưng","latitude":"20.9548045","name":"Xưởng nội thất thành phát","street_number":"Lô 5 liền kề, 14 Mậu Lương, Kiến Hưng","type":"114","longitude":"105.7938915"},"way_id":599197644}
{"request":{"street":"Lô 19 lK 14, Khu đô thị Mậu Lương","latitude":"20.9545428","name":"CÔNG TY TNHH VITRAMEX VIỆT NAM","street_number":"Lô 19 lK 14, Khu đô thị Mậu Lương","type":"114","longitude":"105.7937736"},"way_id":599197644}
{"request":{"street":"Số 26 liền kề14, Mậu Lương, Kiến Hưng","latitude":"20.9548598","name":"Máy làm kem tươi Brullen","street_number":"Số 26 liền kề14, Mậu Lương, Kiến Hưng","type":"93","longitude":"105.7938097"},"way_id":599197644}
{"request":{"street":"26 Mậu Lương, Kiến Hưng","latitude":"20.9548471","name":"Nhà a chị","street_number":"26 Mậu Lương, Kiến Hưng","type":"114","longitude":"105.7937130"},"way_id":599197644}
{"request":{"street":"Số 26 LK, 14 Mậu Lương, Kiến Hưng","latitude":"20.9548747","name":"Nhà phân phối bột làm kem Vua Kem","street_number":"Số 26 LK, 14 Mậu Lương, Kiến Hưng","type":"114","longitude":"105.7937383"},"way_id":599197644}
{"request":{"street":"Số nhà 26 Liền kề 14, Khu đô thị Mậu Lương","latitude":"20.9548754","name":"Công ty TADAVINA","street_number":"Số nhà 26 Liền kề 14, Khu đô thị Mậu Lương","type":"114","longitude":"105.7937385"},"way_id":599197644}
{"request":{"street":"Số 11, LK 15 , Khu Đấu Giá QSD, Mậu Lương, Hữu Hoà","latitude":"20.9544464","name":"Công Ty THHH xây dựng và chống thấm Hoàng Minh","street_number":"Số 11, LK 15 , Khu Đấu Giá QSD, Mậu Lương, Hữu Hoà","type":"114","longitude":"105.7941208"},"way_id":599197644}
{"request":{"street":"Số 24 Liền Kề 14 Mậu Lương TP","latitude":"20.9547398","name":"Máy làm kem cũ - Hà Nội","street_number":"Số 24 Liền Kề 14 Mậu Lương TP","type":"114","longitude":"105.7936286"},"way_id":599197644}
{"request":{"street":"Số 26 liền kề, 14 Mậu Lương, Kiến Hưng","latitude":"20.9548131","name":"Cho thuê máy pha cafe","street_number":"Số 26 liền kề, 14 Mậu Lương, Kiến Hưng","type":"114","longitude":"105.7936455"},"way_id":599197644}
{"request":{"street":"Số 220 Liền Kề, 14 Mậu Lương, Kiến Hưng","latitude":"20.9546086","name":"Công ty cổ phần NC Việt Nam","street_number":"Số 220 Liền Kề, 14 Mậu Lương, Kiến Hưng","type":"114","longitude":"105.7935997"},"way_id":599197644}
{"request":{"street":"Số 26 Liền kề 14, Khu đô thị Mậu Lương","latitude":"20.9548484","name":"Máy làm kem Vua Kem","street_number":"Số 26 Liền kề 14, Khu đô thị Mậu Lương","type":"114","longitude":"105.7936552"},"way_id":599197644}
{"request":{"street":"Số 26 liền kề 14, Khu đô thị Mậu Lương","latitude":"20.9548496","name":"Dạy làm kem Vua Kem","street_number":"Số 26 liền kề 14, Khu đô thị Mậu Lương","type":"5","longitude":"105.7936558"},"way_id":599197644}
{"request":{"street":"18 Khu Giãn Dân Mậu Lương, Hữu Hoà","latitude":"20.9543411","name":"Công Ty Cp Đầu Tư Xây Dựng \u0026 Thương Mại Minh Thành","street_number":"18 Khu Giãn Dân Mậu Lương, Hữu Hoà","type":"114","longitude":"105.7938605"},"way_id":599197644}
{"request":{"street":"Số 26 Liền kề, 14 Mậu Lương, Kiến Hưng","latitude":"20.9549351","name":"PAFO Co., LTD","street_number":"Số 26 Liền kề, 14 Mậu Lương, Kiến Hưng","type":"114","longitude":"105.7936895"},"way_id":599197644}
{"request":{"street":"208 Đường Vạn Phúc","latitude":"20.9777644","name":"Cửa Hàng Điện Lạnh Long Hào","street_number":"208 Đường Vạn Phúc","type":"114","longitude":"105.7749419"},"way_id":598788853}
{"request":{"street":"430 Đường Vạn Phúc, Vạn Phúc","latitude":"20.9776442","name":"Đại Lý Lâm Hùng","street_number":"430 Đường Vạn Phúc, Vạn Phúc","type":"93","longitude":"105.7749224"},"way_id":598788853}
{"request":{"street":"59 Đường tỉnh 70A, Vạn Phúc","latitude":"20.9781241","name":"Đệm thú bông gối xinh","street_number":"59 Đường tỉnh 70A, Vạn Phúc","type":"93","longitude":"105.7744141"},"way_id":598788853}
{"request":{"street":"VN Hanoi City, Số 6 Ngõ 25 Đường Vạn Phúc, Vạn Phúc","latitude":"20.9774442","name":"ohbake","street_number":"VN Hanoi City, Số 6 Ngõ 25 Đường Vạn Phúc, Vạn Phúc","type":"93","longitude":"105.7747945"},"way_id":598788853}
{"request":{"street":"L3.01 Golden Silk Complex, 430","latitude":"20.9773351","name":"Phòng Răng Bs. Giang","street_number":"L3.01 Golden Silk Complex, 430","type":"4","longitude":"105.7747448"},"way_id":598788853}
{"request":{"street":"Đường 430, Phường Vạn Phúc, Quận Hà Đông, TP. Hà Nội","latitude":"20.9773924","name":"HTX Vận Tải Tín Lợi","street_number":"Đường 430, Phường Vạn Phúc, Quận Hà Đông, TP. Hà Nội","type":"113","longitude":"105.7746196"},"way_id":598788853}
{"request":{"street":"4 Ngõ 25 Đường Vạn Phúc, Vạn Phúc","latitude":"20.9775186","name":"Núi - Trà đá Vạn Phúc","street_number":"4 Ngõ 25 Đường Vạn Phúc, Vạn Phúc","type":"93","longitude":"105.7748695"},"way_id":598788853}
{"request":{"street":"undefined","latitude":"20.9772652","name":"Nha khoa Newsmile Đăng Khôi","street_number":"undefined","type":"4","longitude":"105.7747963"},"way_id":598788853}
{"request":{"street":"Đường Vạn Phúc, Vạn Phúc","latitude":"20.9774890","name":"Cơ Sở In Phun Long Oanh","street_number":"Đường Vạn Phúc, Vạn Phúc","type":"114","longitude":"105.7745494"},"way_id":598788853}
{"request":{"street":"Đường Vạn Phúc, Vạn Phúc","latitude":"20.9776369","name":"Cửa Hàng Tạp Hóa Tú Anh","street_number":"Đường Vạn Phúc, Vạn Phúc","type":"93","longitude":"105.7749131"},"way_id":598788853}
{"request":{"street":"Đường 430 Cầu Am, Vạn Phúc","latitude":"20.9772000","name":"Công Ty TNHH Best Seeds Việt Nam","street_number":"Đường 430 Cầu Am, Vạn Phúc","type":"114","longitude":"105.7749000"},"way_id":598788853}
{"request":{"street":"Số 11, LK 10, Khu đấu giá Mậu Lương, P Kiến Hưng, Q","latitude":"20.9776422","name":"Công Ty Cổ Phần Công Nghiệp Bk Vina","street_number":"Số 11, LK 10, Khu đấu giá Mậu Lương, P Kiến Hưng, Q","type":"114","longitude":"105.7749571"},"way_id":598788853}
{"request":{"street":"Gold Silk, L2.3, Khu Đô Thi","latitude":"20.9771700","name":"Tiệm Phun Thêu Huyền Trang","street_number":"Gold Silk, L2.3, Khu Đô Thi","type":"84","longitude":"105.7749000"},"way_id":598788853}
{"request":{"street":"Vietnam","latitude":"20.9772595","name":"Nhà Thuốc Nhật Quang","street_number":"Vietnam","type":"93","longitude":"105.7744874"},"way_id":598788853}
{"request":{"street":"Vietnam","latitude":"20.9773858","name":"Ngọc Diệp Giặt Khô Là Hơi","street_number":"Vietnam","type":"114","longitude":"105.7744305"},"way_id":598788853}
{"request":{"street":"54 Đường tỉnh 70A, Vạn Phúc","latitude":"20.9775640","name":"12 ngõ 39 đường Vạn Phúc, Hà Đông, Hà Nội","street_number":"54 Đường tỉnh 70A, Vạn Phúc","type":"114","longitude":"105.7744530"},"way_id":598788853}
{"request":{"street":"Vietnam","latitude":"20.9776726","name":"Dung Tran","street_number":"Vietnam","type":"114","longitude":"105.7749672"},"way_id":598788853}
{"request":{"street":"54 Đường tỉnh 70A, Vạn Phúc","latitude":"20.9775226","name":"Phương Loan Shop","street_number":"54 Đường tỉnh 70A, Vạn Phúc","type":"93","longitude":"105.7744337"},"way_id":598788853}
{"request":{"street":"Phố Hoàng Công, Kiến Hưng","latitude":"20.9557247","name":"Medo auto","street_number":"Phố Hoàng Công, Kiến Hưng","type":"108","longitude":"105.7934659"},"way_id":599197635}
{"request":{"street":"Trung tâm TDTT Mậu Lương","latitude":"20.9561790","name":"Moka coffee","street_number":"Trung tâm TDTT Mậu Lương","type":"52","longitude":"105.7934890"},"way_id":599197635}
{"request":{"street":"Sân bóng Mậu Lương, ĐD, Kiến Hưng","latitude":"20.9560121","name":"Gym","street_number":"Sân bóng Mậu Lương, ĐD, Kiến Hưng","type":"4","longitude":"105.7931055"},"way_id":599197635}
{"request":{"street":"tổ dân phố số 7","latitude":"20.9555643","name":"Công ty cổ phần Đầu tư Xây dựng và Dịch vụ tòa nhà","street_number":"tổ dân phố số 7","type":"114","longitude":"105.7932965"},"way_id":599197635}
{"request":{"street":"Phố Hoàng Công, Kiến Hưng","latitude":"20.9555397","name":"Công ty BSCI","street_number":"Phố Hoàng Công, Kiến Hưng","type":"114","longitude":"105.7933011"},"way_id":599197635}
{"request":{"street":"Liền kề 2, Lô 21, Khu đấu giá, Mậu Lương","latitude":"20.9555288","name":"Happy Star English Center - Trung tâm tiếng Anh và tin học Happy Star","street_number":"Liền kề 2, Lô 21, Khu đấu giá, Mậu Lương","type":"5","longitude":"105.7932993"},"way_id":599197635}
{"request":{"street":"Unnamed Road","latitude":"20.9555813","name":"8 LK1","street_number":"Unnamed Road","type":"24","longitude":"105.7931521"},"way_id":599197635}
{"request":{"street":"undefined","latitude":"20.9555827","name":"8 - LK1 Khu đấu giá Mậu Lương","street_number":"undefined","type":"114","longitude":"105.7931415"},"way_id":599197635}
{"request":{"street":"Khu đô thị Mậu Lương","latitude":"20.9554637","name":"Nhà phân phối thiết bị vệ sinh công nghiệp BSCI","street_number":"Khu đô thị Mậu Lương","type":"114","longitude":"105.7934778"},"way_id":599197635}
{"request":{"street":"Khu đô thị Mậu Lương","latitude":"20.9554432","name":"BÀN ĂN THÔNG MINH OLADA","street_number":"Khu đô thị Mậu Lương","type":"93","longitude":"105.7934787"},"way_id":599197635}
{"request":{"street":"Sân bóng Mậu Lương, ĐD, Kiến Hưng","latitude":"20.9555165","name":"Home Cafe","street_number":"Sân bóng Mậu Lương, ĐD, Kiến Hưng","type":"24","longitude":"105.7931095"},"way_id":599197635}
{"request":{"street":"Kiến Hưng","latitude":"20.9556186","name":"HÙNG NGÂN MOBILE","street_number":"Kiến Hưng","type":"114","longitude":"105.7938324"},"way_id":599197635}
{"request":{"street":"Sau Sân bóng, Kiến Hưng","latitude":"20.9556176","name":"Cà phê Mậu","street_number":"Sau Sân bóng, Kiến Hưng","type":"52","longitude":"105.7938318"},"way_id":599197635}
{"request":{"street":"Liền kề 594, Dịch vụ 13, Khu đô thị Mậu Lương, Hà Đông Hà Nội","latitude":"20.9554939","name":"Công ty TNHH TXD","street_number":"Liền kề 594, Dịch vụ 13, Khu đô thị Mậu Lương, Hà Đông Hà Nội","type":"114","longitude":"105.7937029"},"way_id":599197635}
{"request":{"street":"Đường Phùng Hưng, P. Văn Quán","latitude":"20.9736719","name":"Cấp Lại Bằng Lái Xe - Sở GTVT HN","street_number":"Đường Phùng Hưng, P. Văn Quán","type":"5","longitude":"105.7818900"},"way_id":220005736}
{"request":{"street":"94 Nhuệ Giang, P. Nguyễn Trãi","latitude":"20.9711635","name":"Trung Tâm Nghệ Thuật Ánh Huyền","street_number":"94 Nhuệ Giang, P. Nguyễn Trãi","type":"5","longitude":"105.7815002"},"way_id":220005736}
{"request":{"street":"46 Nhuệ Giang, P. Nguyễn Trãi","latitude":"20.9726804","name":"Showroom Nội Thất Thuận Khoa","street_number":"46 Nhuệ Giang, P. Nguyễn Trãi","type":"114","longitude":"105.7804712"},"way_id":220005736}
{"request":{"street":"Số 19 Đường Đường Phùng Hưng, P. Phúc La","latitude":"20.9716840","name":"thienduonghoa.net","street_number":"Số 19 Đường Đường Phùng Hưng, P. Phúc La","type":"114","longitude":"105.7833050"},"way_id":220005736}
{"request":{"street":"35, Văn Quán, Quận Hà Đông, Thành Phố Hà Nội, P. Văn Quán","latitude":"20.9745054","name":"Công Ty Cổ Phần Thương Mại \u0026 Dịch Vụ Kids Plaza","street_number":"35, Văn Quán, Quận Hà Đông, Thành Phố Hà Nội, P. Văn Quán","type":"93","longitude":"105.7816301"},"way_id":220005736}
{"request":{"street":"3 Đường Phùng Hưng, P. Phúc La","latitude":"20.9716135","name":"Siêu Thị Tinh Dầu 100","street_number":"3 Đường Phùng Hưng, P. Phúc La","type":"93","longitude":"105.7833227"},"way_id":220005736}
{"request":{"street":"55 Hà Đông, Hà Nội","latitude":"20.9746100","name":"ĐÀO TẠO LÁI XE Mô Tô SBV","street_number":"55 Hà Đông, Hà Nội","type":"93","longitude":"105.7815286"},"way_id":220005736}
{"request":{"street":"65 Phùng Hưng, Hà Đông, Hà Nội, Đường Phùng Hưng, P. Phúc La","latitude":"20.9713930","name":"Growmart Hà Đông","street_number":"65 Phùng Hưng, Hà Đông, Hà Nội, Đường Phùng Hưng, P. Phúc La","type":"93","longitude":"105.7834764"},"way_id":220005736}
{"request":{"street":"10 Đường Phùng Hưng, P. Phúc La","latitude":"20.9713779","name":"Công Ty Tnhh Thiết Bị Điện Ht","street_number":"10 Đường Phùng Hưng, P. Phúc La","type":"114","longitude":"105.7834643"},"way_id":220005736}
{"request":{"street":"32, Nhuệ Giang, Phường Nguyễn Trãi, Quận Hà Đông, P. Nguyễn Trãi","latitude":"20.9713980","name":"Trung Tâm Luyện Thi Hải Đăng Edu","street_number":"32, Nhuệ Giang, Phường Nguyễn Trãi, Quận Hà Đông, P. Nguyễn Trãi","type":"114","longitude":"105.7810128"},"way_id":220005736}
{"request":{"street":"29 Đường Phùng Hưng, P. Phúc La","latitude":"20.9713454","name":"FPT Shop","street_number":"29 Đường Phùng Hưng, P. Phúc La","type":"93","longitude":"105.7835367"},"way_id":220005736}
{"request":{"street":"33 Đường Phùng Hưng, P. Phúc La","latitude":"20.9713245","name":"CÔNG TY TNHH SX- TM- XNK THUẬN PHONG","street_number":"33 Đường Phùng Hưng, P. Phúc La","type":"114","longitude":"105.7835947"},"way_id":220005736}
{"request":{"street":"174 Đường 19/5, P. Văn Quán","latitude":"20.9730297","name":"Mầm non Bé tài năng","street_number":"174 Đường 19/5, P. Văn Quán","type":"5","longitude":"105.7846437"},"way_id":220005736}
{"request":{"street":"112 Nhuệ Giang, P. Nguyễn Trãi","latitude":"20.9706870","name":"Viện Chăm Sóc Máy Tính Le-Tech Hà Đông","street_number":"112 Nhuệ Giang, P. Nguyễn Trãi","type":"114","longitude":"105.7819528"},"way_id":220005736}
{"request":{"street":"CT2B, Văn Quán, Phường Văn Quán, Quận Hà Đông, P. Văn Quán","latitude":"20.9751644","name":"Cửa Hàng Shopyeucon.com","street_number":"CT2B, Văn Quán, Phường Văn Quán, Quận Hà Đông, P. Văn Quán","type":"93","longitude":"105.7826290"},"way_id":220005736}
{"request":{"street":"1 Phố Hoàng Văn Thụ","latitude":"20.9717386","name":"Trung Tâm Dịch Vụ Việc Làm 20/10","street_number":"1 Phố Hoàng Văn Thụ","type":"114","longitude":"105.7802188"},"way_id":220005736}
{"request":{"street":"ngõ 5 Đường 19/5, P. Văn Quán","latitude":"20.9736846","name":"Trung Tâm Phân Phối Dược Phẩm Vàng","street_number":"ngõ 5 Đường 19/5, P. Văn Quán","type":"93","longitude":"105.7845828"},"way_id":220005736}
{"request":{"street":"9 Đường Nguyễn Trãi, P. Nguyễn Trãi","latitude":"20.9715683","name":"Cửa Hàng Đồ Chơi 9, F5B 330 Nguyễn Trãi","street_number":"9 Đường Nguyễn Trãi, P. Nguyễn Trãi","type":"93","longitude":"105.7803476"},"way_id":220005736}
{"request":{"street":"Phúc La","latitude":"20.9654323","name":"Phúc La","street_number":"Phúc La","type":"2","longitude":"105.7894045"},"way_id":220005736}
{"request":{"street":"2 Trần Phú, P. Mộ Lao","latitude":"20.9847279","name":"Học viện Y Dược học Cổ truyền Việt Nam","street_number":"2 Trần Phú, P. Mộ Lao","type":"4","longitude":"105.7925659"},"way_id":710270797}
{"request":{"street":"Km10 Nguyễn Trãi, P. Văn Quán","latitude":"20.9805524","name":"Trường Đại Học Kiến Trúc Hà Nội","street_number":"Km10 Nguyễn Trãi, P. Văn Quán","type":"45","longitude":"105.7893665"},"way_id":710270797}
{"request":{"street":"10 Nguyễn Trãi, P. Mộ Lao","latitude":"20.9827283","name":"Lotteria","street_number":"10 Nguyễn Trãi, P. Mộ Lao","type":"50","longitude":"105.7904535"},"way_id":710270797}
{"request":{"street":"Bắc Hà Fodacon, Nguyễn Trãi, P. Mộ Lao","latitude":"20.9826442","name":"Catwalk SHOP","street_number":"Bắc Hà Fodacon, Nguyễn Trãi, P. Mộ Lao","type":"93","longitude":"105.7900579"},"way_id":710270797}
{"request":{"street":"434 Nguyễn Trãi","latitude":"20.9847718","name":"Công Ty Cp Lilama","street_number":"434 Nguyễn Trãi","type":"114","longitude":"105.7932168"},"way_id":710270797}
{"request":{"street":"số 13 - ngõ 3 - tổ 46, Chiến Thắng","latitude":"20.9830180","name":"Công ty Sức Mạnh Việt","street_number":"số 13 - ngõ 3 - tổ 46, Chiến Thắng","type":"114","longitude":"105.7936400"},"way_id":710270797}
{"request":{"street":"Vietnam","latitude":"20.9826980","name":"VnDrupal","street_number":"Vietnam","type":"114","longitude":"105.7913120"},"way_id":710270797}
{"request":{"street":"undefined","latitude":"20.9840794","name":"Trung tâm Phân tích Thí nghiệm Địa chất","street_number":"undefined","type":"114","longitude":"105.7932119"},"way_id":710270797}
{"request":{"street":"63 Trần Phú, P. Văn Quán","latitude":"20.9841956","name":"Đại Lý Hóa Mỹ Phẩm Cẩm Tú","street_number":"63 Trần Phú, P. Văn Quán","type":"93","longitude":"105.7932329"},"way_id":710270797}
{"request":{"street":"18 Trần Phú, P. Mộ Lao","latitude":"20.9825277","name":"Tòa Soạn Dien Tu.Com","street_number":"18 Trần Phú, P. Mộ Lao","type":"114","longitude":"105.7907116"},"way_id":710270797}
{"request":{"street":"110A5 TT128C Đại La","latitude":"20.9843934","name":"Công Ty Quang Hưng","street_number":"110A5 TT128C Đại La","type":"114","longitude":"105.7934677"},"way_id":710270797}
{"request":{"street":"605 Nguyễn Trãi, P. Văn Quán","latitude":"20.9847641","name":"Công Ty Cổ phần mỹ Nghệ Việt Nam","street_number":"605 Nguyễn Trãi, P. Văn Quán","type":"114","longitude":"105.7932237"},"way_id":710270797}
{"request":{"street":"{{Province, P. Mộ Lao","latitude":"20.9835595","name":"Melody Flower \u0026 Gift Shop","street_number":"{{Province, P. Mộ Lao","type":"93","longitude":"105.7911730"},"way_id":710270797}
{"request":{"street":"605 Nguyễn Trãi, P. Văn Quán","latitude":"20.9851213","name":"Công Ty Cp Mỹ Nghệ Việt Nam","street_number":"605 Nguyễn Trãi, P. Văn Quán","type":"114","longitude":"105.7933910"},"way_id":710270797}
{"request":{"street":"36, Phùng Khoang, Trung Văn","latitude":"20.9859186","name":"Tnmart.vn","street_number":"36, Phùng Khoang, Trung Văn","type":"114","longitude":"105.7934864"},"way_id":710270797}
{"request":{"street":"LK31 An Hòa, Khu đô thị Bắc Hà","latitude":"20.9836569","name":"Kiều Quán","street_number":"LK31 An Hòa, Khu đô thị Bắc Hà","type":"93","longitude":"105.7897329"},"way_id":710270797}
{"request":{"street":"BT 13, ngõ 8 Nguyễn Văn Lộc, P. Mộ Lao","latitude":"20.9835099","name":"Mầm Non Tư Thục KIDS HOME Bắc Hà","street_number":"BT 13, ngõ 8 Nguyễn Văn Lộc, P. Mộ Lao","type":"5","longitude":"105.7886484"},"way_id":710270797}
{"request":{"street":"80 Chiến Thắng, P. Văn Quán","latitude":"20.9821222","name":"Cửa Hàng Hải Hà Kotobuki","street_number":"80 Chiến Thắng, P. Văn Quán","type":"93","longitude":"105.7937061"},"way_id":710270797}
{"request":{"street":"BT6-B24 Van Quan commune area, Ha Dong, P. Văn Quán","latitude":"20.9776890","name":"BT6-B24 Villa","street_number":"BT6-B24 Van Quan commune area, Ha Dong, P. Văn Quán","type":"114","longitude":"105.7897250"},"way_id":693652772}
{"request":{"street":"Vietnam","latitude":"20.9800584","name":"VENUSKISS","street_number":"Vietnam","type":"93","longitude":"105.7884415"},"way_id":693652772}
{"request":{"street":"Nguyễn Trãi, P. Văn Quán","latitude":"20.9797579","name":"Học Viện Anh Ngữ EQuest Nguyễn Trãi","street_number":"Nguyễn Trãi, P. Văn Quán","type":"114","longitude":"105.7878631"},"way_id":693652772}
{"request":{"street":"Nguyễn Trãi- Thanh Xuân Nam- Thanh Xuân, P. Mộ Lao","latitude":"20.9802330","name":"TT đào tạo lái xe","street_number":"Nguyễn Trãi- Thanh Xuân Nam- Thanh Xuân, P. Mộ Lao","type":"114","longitude":"105.7877710"},"way_id":693652772}
{"request":{"street":"Số 7 Ngõ 17 Nguyễn Văn Lộc, P. Mộ Lao","latitude":"20.9822165","name":"Đại Lý Máy Tính Bè Bạn","street_number":"Số 7 Ngõ 17 Nguyễn Văn Lộc, P. Mộ Lao","type":"93","longitude":"105.7889951"},"way_id":693652772}
{"request":{"street":"Ngõ A Kiến Trúc, P. Văn Quán","latitude":"20.9801436","name":"Cửa hàng In Biển Đông","street_number":"Ngõ A Kiến Trúc, P. Văn Quán","type":"93","longitude":"105.7889763"},"way_id":693652772}
{"request":{"street":"Ngõ A Kiến Trúc, P. Văn Quán","latitude":"20.9804972","name":"Công ty Cp Sông Đà 2","street_number":"Ngõ A Kiến Trúc, P. Văn Quán","type":"114","longitude":"105.7885714"},"way_id":693652772}
{"request":{"street":"142 Trần Phú, P. Mộ Lao","latitude":"20.9802102","name":"ATM VPBank","street_number":"142 Trần Phú, P. Mộ Lao","type":"114","longitude":"105.7874786"},"way_id":693652772}
{"request":{"street":"Trần Phú, P. Văn Quán","latitude":"20.9801978","name":"Công Ty TNHH Đầu Tư 3V","street_number":"Trần Phú, P. Văn Quán","type":"114","longitude":"105.7880520"},"way_id":693652772}
{"request":{"street":"P. Mộ Lao","latitude":"20.9801277","name":"Viện Công nghệ Thông tin và Truyền thông CDiT","street_number":"P. Mộ Lao","type":"114","longitude":"105.7881033"},"way_id":693652772}
{"request":{"street":"Lương Yên, P. Văn Quán","latitude":"20.9801610","name":"smecta","street_number":"Lương Yên, P. Văn Quán","type":"114","longitude":"105.7884510"},"way_id":693652772}
{"request":{"street":"Km10, Nguyễn Trãi, Hà Đông, Hà Nội, P. Mộ Lao","latitude":"20.9806357","name":"Điểm Bán Vé Xe Bus A11","street_number":"Km10, Nguyễn Trãi, Hà Đông, Hà Nội, P. Mộ Lao","type":"103","longitude":"105.7880194"},"way_id":693652772}
{"request":{"street":"Trần Phú, P. Văn Quán","latitude":"20.9802187","name":"HA NOI CPM ALUMINIUM \u0026 GLASS","street_number":"Trần Phú, P. Văn Quán","type":"114","longitude":"105.7885947"},"way_id":693652772}
{"request":{"street":"A40 -TT 17 -VĂN QUÁN HÀ ĐÔNG, P. Mộ Lao","latitude":"20.9802671","name":"Gỗ Hoàng Gia","street_number":"A40 -TT 17 -VĂN QUÁN HÀ ĐÔNG, P. Mộ Lao","type":"93","longitude":"105.7877107"},"way_id":693652772}
{"request":{"street":"P2507 tòa nhà Sông Đà - 125 Trần Phú Hà Đông","latitude":"20.9799090","name":"Trang Trí Ban Công Hà Nội","street_number":"P2507 tòa nhà Sông Đà - 125 Trần Phú Hà Đông","type":"114","longitude":"105.7883700"},"way_id":693652772}
{"request":{"street":"139, Trần Phú, Phường Mộ Lao, Quận Hà Đông, Thành Phố Hà Nội, P. Mộ Lao","latitude":"20.9807872","name":"Công Ty Cổ Phần Tư Vấn \u0026 Thiết Kế Kiến An","street_number":"139, Trần Phú, Phường Mộ Lao, Quận Hà Đông, Thành Phố Hà Nội, P. Mộ Lao","type":"114","longitude":"105.7882681"},"way_id":693652772}
{"request":{"street":"Mộ Lao","latitude":"20.9833749","name":"Mộ Lao","street_number":"Mộ Lao","type":"2","longitude":"105.7835348"},"way_id":693652772}
