{"request":{"street":"Kiến Hưng","latitude":"20.9528073","name":"Kiến Hưng","street_number":"Kiến Hưng","type":"2","longitude":"105.7850022"},"way_id":599527184}
{"request":{"street":"undefined","latitude":"20.9564418","name":"112-122 Mậu Lương","street_number":"undefined","type":"114","longitude":"105.7955990"},"way_id":599197633}
{"request":{"street":"Khu Giãn Dân Mậu Lương, Hữu Hoà","latitude":"20.9561615","name":"Trường Mầm Non Mậu Lương - Cơ Sở 1","street_number":"Khu Giãn Dân Mậu Lương, Hữu Hoà","type":"5","longitude":"105.7955571"},"way_id":599197633}
{"request":{"street":"Mậu Lương, Kiến Hưng","latitude":"20.9561214","name":"Shop vinci","street_number":"Mậu Lương, Kiến Hưng","type":"93","longitude":"105.7953549"},"way_id":599197633}
{"request":{"street":"37, Tổ 9, Đường Mậu Lương, Phường Kiến Hưng, Quận Hà Đông, Hữu Hoà","latitude":"20.9561897","name":"Công Ty Trách Nhiệm Hữu Hạn Thương Mại Xây Dựng Hạ Tầng Quang Huy","street_number":"37, Tổ 9, Đường Mậu Lương, Phường Kiến Hưng, Quận Hà Đông, Hữu Hoà","type":"114","longitude":"105.7955718"},"way_id":599197633}
{"request":{"street":"45, Đường Mậu Lương, Phường Kiến Hưng, Quận Hà Đông, Kiến Hưng","latitude":"20.9562678","name":"Cửa Hàng Điện Thoại Mạnh Cường","street_number":"45, Đường Mậu Lương, Phường Kiến Hưng, Quận Hà Đông, Kiến Hưng","type":"93","longitude":"105.7955330"},"way_id":599197633}
{"request":{"street":"23, Đường Mậu Lương, Phường Kiến Hưng, Quận Hà Đông, Kiến Hưng","latitude":"20.9562794","name":"Tạp hóa Hà Thu","street_number":"23, Đường Mậu Lương, Phường Kiến Hưng, Quận Hà Đông, Kiến Hưng","type":"93","longitude":"105.7954339"},"way_id":599197633}
{"request":{"street":"4 Khu Giãn Dân Mậu Lương, Hữu Hoà","latitude":"20.9558891","name":"Công Ty Tnhh Thương Mại \u0026 Đầu Tư Nam Đô","street_number":"4 Khu Giãn Dân Mậu Lương, Hữu Hoà","type":"114","longitude":"105.7954699"},"way_id":599197633}
{"request":{"street":"39, Tổ 11, Đường Mậu Lương, Phường Kiến Hưng, Quận Hà Đông, Hữu Hoà","latitude":"20.9563417","name":"Cửa Hàng Vật Tư Ngành Nước Thắng Hoàn","street_number":"39, Tổ 11, Đường Mậu Lương, Phường Kiến Hưng, Quận Hà Đông, Hữu Hoà","type":"114","longitude":"105.7954405"},"way_id":599197633}
{"request":{"street":"139 Đường Liên Xã Thôn Hữu Lê, Tả Thanh Oai","latitude":"20.9563430","name":"Chiến thắng inverter","street_number":"139 Đường Liên Xã Thôn Hữu Lê, Tả Thanh Oai","type":"114","longitude":"105.7955140"},"way_id":599197633}
{"request":{"street":"Đa Sỹ, Kiến Hưng","latitude":"20.9562188","name":"Quán Phở Bò Nam Định","street_number":"Đa Sỹ, Kiến Hưng","type":"50","longitude":"105.7952454"},"way_id":599197633}
{"request":{"street":"112 Mậu Lương, Hữu Hoà","latitude":"20.9563953","name":"Nhà Thuốc Thắng Lan","street_number":"112 Mậu Lương, Hữu Hoà","type":"114","longitude":"105.7954441"},"way_id":599197633}
{"request":{"street":"116 Mậu Lương, Kiến Hưng","latitude":"20.9563994","name":"Đại Lý : Hoàng Hùng","street_number":"116 Mậu Lương, Kiến Hưng","type":"93","longitude":"105.7955320"},"way_id":599197633}
{"request":{"street":"112 Mậu Lương, Kiến Hưng","latitude":"20.9564080","name":"NILON HƯƠNG QUẾ","street_number":"112 Mậu Lương, Kiến Hưng","type":"93","longitude":"105.7954956"},"way_id":599197633}
{"request":{"street":"Mậu Lương, Kiến Hưng","latitude":"20.9563425","name":"Miếu Thành Hoàng Mậu Lương","street_number":"Mậu Lương, Kiến Hưng","type":"114","longitude":"105.7957203"},"way_id":599197633}
{"request":{"street":"53, Đường Mậu Lương, Phường Kiến Hưng, Quận Hà Đông, Hữu Hoà","latitude":"20.9561897","name":"Cửa Hàng Kim Khí Tổng Hợp Vinh Khanh","street_number":"53, Đường Mậu Lương, Phường Kiến Hưng, Quận Hà Đông, Hữu Hoà","type":"114","longitude":"105.7958293"},"way_id":599197633}
{"request":{"street":"Vietnam","latitude":"20.9563871","name":"Hoàng Trung Motor","street_number":"Vietnam","type":"114","longitude":"105.7956682"},"way_id":599197633}
{"request":{"street":"Kiến Hưng","latitude":"20.9564112","name":"Bia Hơi Tuấn Jô","street_number":"Kiến Hưng","type":"93","longitude":"105.7953323"},"way_id":599197633}
{"request":{"street":"Liền kề 21, lô sô 8, Khu đấu giá, đường Mậu Lương, Kiến Hưng","latitude":"20.9563951","name":"Bóng đá Fast - Tin tức bóng đá thể thao 24h nhanh nhất","street_number":"Liền kề 21, lô sô 8, Khu đấu giá, đường Mậu Lương, Kiến Hưng","type":"114","longitude":"105.7952821"},"way_id":599197633}
{"request":{"street":"Quang Trung","latitude":"20.9652675","name":"Quang Trung","street_number":"Quang Trung","type":"2","longitude":"105.7681278"},"way_id":687216053}
{"request":{"street":"B1 Lê Văn Lương kéo dài","latitude":"20.9826715","name":"Bất Động Sản Phát Lộc","street_number":"B1 Lê Văn Lương kéo dài","type":"114","longitude":"105.7707824"},"way_id":687216053}
{"request":{"street":"Nhà A2 - C1 Khối 8, Phường Vạn Phúc, Vạn Phúc","latitude":"20.9786876","name":"CÔNG TY CỔ PHẦN THƯƠNG MẠI VÀ XUẤT NHẬP KHẨU TÂN THIÊN PHÁT","street_number":"Nhà A2 - C1 Khối 8, Phường Vạn Phúc, Vạn Phúc","type":"114","longitude":"105.7717960"},"way_id":687216053}
{"request":{"street":"64 Phố Cầu Am, Vạn Phúc","latitude":"20.9788913","name":"Trạm Y tế phường Vạn Phúc","street_number":"64 Phố Cầu Am, Vạn Phúc","type":"4","longitude":"105.7751548"},"way_id":687216053}
{"request":{"street":"Số 12, 70A, Vạn Phúc","latitude":"20.9808385","name":"Nha Khoa Vạn Phúc","street_number":"Số 12, 70A, Vạn Phúc","type":"4","longitude":"105.7717874"},"way_id":687216053}
{"request":{"street":"Phuong, Đường Vạn Phúc, Vạn Phúc","latitude":"20.9794270","name":"NUGAVANPHUC","street_number":"Phuong, Đường Vạn Phúc, Vạn Phúc","type":"114","longitude":"105.7725980"},"way_id":687216053}
{"request":{"street":"Đường 430, Vạn Phúc, Hà Đông, Vạn Phúc","latitude":"20.9794279","name":"CÔNG TY TNHH XD VÀ TM PHONG CÁCH MỚI","street_number":"Đường 430, Vạn Phúc, Hà Đông, Vạn Phúc","type":"114","longitude":"105.7725985"},"way_id":687216053}
{"request":{"street":"Tổ dân phố Độc Lập, Phường Vạn Phúc, Vạn Phúc","latitude":"20.9803220","name":"Công ty cổ phần công nghệ Thế Giới Phẳng","street_number":"Tổ dân phố Độc Lập, Phường Vạn Phúc, Vạn Phúc","type":"114","longitude":"105.7751540"},"way_id":687216053}
{"request":{"street":"5 Ngách 10 Ngõ 81, TDP 10","latitude":"20.9796055","name":"Bông - Toysreview-TV","street_number":"5 Ngách 10 Ngõ 81, TDP 10","type":"93","longitude":"105.7724060"},"way_id":687216053}
{"request":{"street":"Số 10 Phố Lụa, Vạn Phúc","latitude":"20.9795863","name":"Xưởng Dệt Lụa Tơ Tằm TRIỆU VĂN MÃO","street_number":"Số 10 Phố Lụa, Vạn Phúc","type":"93","longitude":"105.7740539"},"way_id":687216053}
{"request":{"street":"286, Đường 430, Phường Vạn Phúc, Quận Hà Đông, Thành Phố Hà Nội, Vạn Phúc","latitude":"20.9794731","name":"Cửa Hàng Rèm Mỹ Anh","street_number":"286, Đường 430, Phường Vạn Phúc, Quận Hà Đông, Thành Phố Hà Nội, Vạn Phúc","type":"93","longitude":"105.7725143"},"way_id":687216053}
{"request":{"street":"1 Đường Vạn Phúc, Vạn Phúc","latitude":"20.9795953","name":"Đại Lý Sơn Thành Trung","street_number":"1 Đường Vạn Phúc, Vạn Phúc","type":"93","longitude":"105.7723444"},"way_id":687216053}
{"request":{"street":"70 Đường Vạn Phúc, Vạn Phúc","latitude":"20.9793682","name":"Nội Thất Hoà Phát, Xuân Hoà, 190 Hà Đông","street_number":"70 Đường Vạn Phúc, Vạn Phúc","type":"93","longitude":"105.7725368"},"way_id":687216053}
{"request":{"street":"ngõ 7 Phố Lụa, Vạn Phúc","latitude":"20.9802459","name":"Gương Soi Hữu Thành","street_number":"ngõ 7 Phố Lụa, Vạn Phúc","type":"114","longitude":"105.7739109"},"way_id":687216053}
{"request":{"street":"66 Đường Vạn Phúc, Vạn Phúc","latitude":"20.9805259","name":"Siêu thị Thế Giới Di Động","street_number":"66 Đường Vạn Phúc, Vạn Phúc","type":"93","longitude":"105.7720316"},"way_id":687216053}
{"request":{"street":"Phố Lụa, Vạn Phúc","latitude":"20.9794981","name":"Cửa Hàng Lụa Hà Đông","street_number":"Phố Lụa, Vạn Phúc","type":"13","longitude":"105.7738128"},"way_id":687216053}
{"request":{"street":"Phố Lụa, Vạn Phúc","latitude":"20.9794123","name":"Cửa Hàng Lụa Âu Lạc","street_number":"Phố Lụa, Vạn Phúc","type":"93","longitude":"105.7738030"},"way_id":687216053}
{"request":{"street":"10 Đường Vạn Phúc","latitude":"20.9791270","name":"Elvy shoes shop","street_number":"10 Đường Vạn Phúc","type":"93","longitude":"105.7722928"},"way_id":687216053}
{"request":{"street":"Mộ Lao","latitude":"20.9833749","name":"Mộ Lao","street_number":"Mộ Lao","type":"2","longitude":"105.7835348"},"way_id":687216053}
{"request":{"street":"undefined","latitude":"20.9570334","name":"Ngõ 83 Mậu Lương","street_number":"undefined","type":"114","longitude":"105.7944926"},"way_id":599518197}
{"request":{"street":"54 tổ 11,Mậu Lương, P. Kiến Hưng,Q. Hà Đông,TP. Hà Nội","latitude":"20.9569550","name":"Công ty cổ phần sản xuất và kinh doanh thương mại TC","street_number":"54 tổ 11,Mậu Lương, P. Kiến Hưng,Q. Hà Đông,TP. Hà Nội","type":"114","longitude":"105.7944818"},"way_id":599518197}
{"request":{"street":"138, Tổ 10, Đường Mậu Lương, Phường Kiến Hưng, Quận Hà Đông, Kiến Hưng","latitude":"20.9568765","name":"Hợp Tác Xã Dịch Vụ Tổng Hợp Mậu Lương","street_number":"138, Tổ 10, Đường Mậu Lương, Phường Kiến Hưng, Quận Hà Đông, Kiến Hưng","type":"114","longitude":"105.7944078"},"way_id":599518197}
{"request":{"street":"Tầng 2, Nhà Văn Hóa Mậu Lương Phường Kiến Hưng, Quận Hà Đông, Kiến Hưng","latitude":"20.9568295","name":"Câu Lạc Bộ Thể Hình Bảo Minh","street_number":"Tầng 2, Nhà Văn Hóa Mậu Lương Phường Kiến Hưng, Quận Hà Đông, Kiến Hưng","type":"114","longitude":"105.7943502"},"way_id":599518197}
{"request":{"street":"140, Đường Mậu Lương, Phường Kiến Hưng, Quận Hà Đông, Kiến Hưng","latitude":"20.9567845","name":"Đại Lý Gạo","street_number":"140, Đường Mậu Lương, Phường Kiến Hưng, Quận Hà Đông, Kiến Hưng","type":"114","longitude":"105.7945524"},"way_id":599518197}
{"request":{"street":"22, Tổ 11 Đường Mậu Lương Phường Kiến Hưng, Quận Hà Đông, Kiến Hưng","latitude":"20.9567622","name":"Cửa Hàng Nhôm Kính Inox Phú Cường","street_number":"22, Tổ 11 Đường Mậu Lương Phường Kiến Hưng, Quận Hà Đông, Kiến Hưng","type":"93","longitude":"105.7945775"},"way_id":599518197}
{"request":{"street":"85 Mậu Lương, Kiến Hưng","latitude":"20.9567222","name":"Công Ty Cổ Phần Toàn Cầu Hải Linh","street_number":"85 Mậu Lương, Kiến Hưng","type":"114","longitude":"105.7944953"},"way_id":599518197}
{"request":{"street":"81 Mậu Lương, Kiến Hưng","latitude":"20.9567303","name":"Hương Vị Việt","street_number":"81 Mậu Lương, Kiến Hưng","type":"50","longitude":"105.7943698"},"way_id":599518197}
{"request":{"street":"87 Mậu Lương, Kiến Hưng","latitude":"20.9567198","name":"Game Center 87 Mậu Lương - Net Tám Xuân 07","street_number":"87 Mậu Lương, Kiến Hưng","type":"93","longitude":"105.7945699"},"way_id":599518197}
{"request":{"street":"24, Đường Mậu Lương, Phường Kiến Hưng, Quận Hà Đông, Kiến Hưng","latitude":"20.9568095","name":"Cửa Hàng Điện Gia Dụng Bao Hương","street_number":"24, Đường Mậu Lương, Phường Kiến Hưng, Quận Hà Đông, Kiến Hưng","type":"93","longitude":"105.7947058"},"way_id":599518197}
{"request":{"street":"12 Đặng Tiến Đông, Kiến Hưng","latitude":"20.9567157","name":"GẠO TƯƠI --- gaotuoi.vn","street_number":"12 Đặng Tiến Đông, Kiến Hưng","type":"93","longitude":"105.7917041"},"way_id":599536677}
{"request":{"street":"137 Tổ 10 tp, Kiến Hưng","latitude":"20.9562686","name":"Công Ty Cổ Phần Công Nghệ CKT Việt Nam","street_number":"137 Tổ 10 tp, Kiến Hưng","type":"114","longitude":"105.7923491"},"way_id":599536677}
{"request":{"street":"Kiến Hưng","latitude":"20.9560557","name":"Công ty Cổ phần S.B Việt Nam","street_number":"Kiến Hưng","type":"114","longitude":"105.7920136"},"way_id":599536677}
{"request":{"street":"Số 32 Mậu Lương, Kiến Hưng","latitude":"20.9568995","name":"KYMDAN, EVERON ĐỨC THU","street_number":"Số 32 Mậu Lương, Kiến Hưng","type":"93","longitude":"105.7920302"},"way_id":599536677}
{"request":{"street":"ADD: SỐ, 38 Mậu Lương, Kiến Hưng","latitude":"20.9570336","name":"quangcaoledviet","street_number":"ADD: SỐ, 38 Mậu Lương, Kiến Hưng","type":"114","longitude":"105.7913384"},"way_id":599536677}
{"request":{"street":"Vietnam","latitude":"20.9564718","name":"Nội Thất Tuyển Hướng","street_number":"Vietnam","type":"93","longitude":"105.7920333"},"way_id":599536677}
{"request":{"street":"47 tổ 10 khu giãn dân, Mậu Lương","latitude":"20.9563687","name":"Nem Bùi Bắc Ninh","street_number":"47 tổ 10 khu giãn dân, Mậu Lương","type":"50","longitude":"105.7920282"},"way_id":599536677}
{"request":{"street":"21 Đa Sỹ, Kiến Hưng","latitude":"20.9565341","name":"Đại Lý Tạp Hóa Hà My","street_number":"21 Đa Sỹ, Kiến Hưng","type":"93","longitude":"105.7921324"},"way_id":599536677}
{"request":{"street":"16 Đa Sỹ, Kiến Hưng","latitude":"20.9565770","name":"Cửa Hàng Nhôm Thanh Đoàn Thắng","street_number":"16 Đa Sỹ, Kiến Hưng","type":"93","longitude":"105.7918547"},"way_id":599536677}
{"request":{"street":"38 Mậu Lương, Kiến Hưng","latitude":"20.9567432","name":"Quảng cáo ADMAX","street_number":"38 Mậu Lương, Kiến Hưng","type":"114","longitude":"105.7920675"},"way_id":599536677}
{"request":{"street":"30 Mậu Lương, Kiến Hưng","latitude":"20.9567253","name":"Mầm non Evergreen","street_number":"30 Mậu Lương, Kiến Hưng","type":"5","longitude":"105.7918690"},"way_id":599536677}
{"request":{"street":"111B Tổ 10 Khu dân cư mới, Mậu Lương, Kiến Hưng","latitude":"20.9563576","name":"Shop HTP","street_number":"111B Tổ 10 Khu dân cư mới, Mậu Lương, Kiến Hưng","type":"50","longitude":"105.7922714"},"way_id":599536677}
{"request":{"street":"36 Mậu Lương, Kiến Hưng","latitude":"20.9567521","name":"Bi-A CR9 Mậu Lương","street_number":"36 Mậu Lương, Kiến Hưng","type":"114","longitude":"105.7920173"},"way_id":599536677}
{"request":{"street":"50 Mậu Lương, Kiến Hưng","latitude":"20.9567600","name":"Cửa Hàng Xe Máy Hưng Xe Biển","street_number":"50 Mậu Lương, Kiến Hưng","type":"93","longitude":"105.7921000"},"way_id":599536677}
{"request":{"street":"21, Phường Kiến Hưng, Quận Hà Đông","latitude":"20.9567800","name":"Văn Phòng Bất Động Sản Đại Lộc","street_number":"21, Phường Kiến Hưng, Quận Hà Đông","type":"114","longitude":"105.7920000"},"way_id":599536677}
{"request":{"street":"Vietnam","latitude":"20.9567137","name":"Hoàng Thê","street_number":"Vietnam","type":"52","longitude":"105.7917605"},"way_id":599536677}
{"request":{"street":"50 Mậu Lương, Kiến Hưng","latitude":"20.9567843","name":"Vân Anh Quán Phở Gà Phố Cổ","street_number":"50 Mậu Lương, Kiến Hưng","type":"114","longitude":"105.7921173"},"way_id":599536677}
{"request":{"street":"Kiến Hưng","latitude":"20.9584268","name":"Mậu Lương","street_number":"Kiến Hưng","type":"114","longitude":"105.7945406"},"way_id":599536677}
{"request":{"street":"Lô D12 Khu đấu giá QSĐ","latitude":"20.9813250","name":"Công ty TNHH Hãng Kiểm toán và Định giá ATC","street_number":"Lô D12 Khu đấu giá QSĐ","type":"114","longitude":"105.7723847"},"way_id":596749902}
{"request":{"street":"Ngõ 68, Vạn Phúc","latitude":"20.9807700","name":"Cửa Hàng Lan Việt","street_number":"Ngõ 68, Vạn Phúc","type":"13","longitude":"105.7725611"},"way_id":596749902}
{"request":{"street":"Kios 25 Ngõ 68, Vạn Phúc","latitude":"20.9808000","name":"Công Ty TNHH SX TM \u0026 XNKThái Dương","street_number":"Kios 25 Ngõ 68, Vạn Phúc","type":"93","longitude":"105.7726000"},"way_id":596749902}
{"request":{"street":"Ki Ốt 18, Khu Dịch Vụ Của HTX Dệt, Vạn Phúc, Quận Hà Đông, Thành Phố Hà Nội, Vạn Phúc","latitude":"20.9807850","name":"Hair Salon Ngọc Khanh","street_number":"Ki Ốt 18, Khu Dịch Vụ Của HTX Dệt, Vạn Phúc, Quận Hà Đông, Thành Phố Hà Nội, Vạn Phúc","type":"100","longitude":"105.7725300"},"way_id":596749902}
{"request":{"street":"Vietnam","latitude":"20.9807467","name":"Beauty Salon Hiến","street_number":"Vietnam","type":"114","longitude":"105.7726736"},"way_id":596749902}
{"request":{"street":"Kios 23 Ngõ 68, Vạn Phúc","latitude":"20.9807100","name":"Đại Lý Vé Máy Bay Vạn Phúc","street_number":"Kios 23 Ngõ 68, Vạn Phúc","type":"114","longitude":"105.7725000"},"way_id":596749902}
{"request":{"street":"Tổ Dân Phố Bạch Đằng, Phường Vạn Phúc, Quận Hà Đông, Thành Phố Hà Nội, Vạn Phúc","latitude":"20.9807550","name":"Cửa Hàng Tạp Hóa Tuấn Trang","street_number":"Tổ Dân Phố Bạch Đằng, Phường Vạn Phúc, Quận Hà Đông, Thành Phố Hà Nội, Vạn Phúc","type":"93","longitude":"105.7724760"},"way_id":596749902}
{"request":{"street":"54 Đường tỉnh 70A, Vạn Phúc","latitude":"20.9807257","name":"Vườn lan huy đô","street_number":"54 Đường tỉnh 70A, Vạn Phúc","type":"93","longitude":"105.7724574"},"way_id":596749902}
{"request":{"street":"Unnamed Road, làng Vạn Phúc","latitude":"20.9807979","name":"Vườn lan Duy Hiếu","street_number":"Unnamed Road, làng Vạn Phúc","type":"93","longitude":"105.7724399"},"way_id":596749902}
{"request":{"street":"Ngõ 68, Vạn Phúc","latitude":"20.9808510","name":"Hệ thống chăm sóc xe hơi - TPS JAPAN","street_number":"Ngõ 68, Vạn Phúc","type":"108","longitude":"105.7727660"},"way_id":596749902}
{"request":{"street":"14 Khu Dịch Vụ HTX, Vạn Phúc, Quận Hà Đông, Thành Phố Hà Nội, Vạn Phúc","latitude":"20.9807050","name":"Quán Bống","street_number":"14 Khu Dịch Vụ HTX, Vạn Phúc, Quận Hà Đông, Thành Phố Hà Nội, Vạn Phúc","type":"93","longitude":"105.7724000"},"way_id":596749902}
{"request":{"street":"Ngõ 68, Vạn Phúc","latitude":"20.9808213","name":"Cà phê Thanh Thảo","street_number":"Ngõ 68, Vạn Phúc","type":"52","longitude":"105.7728163"},"way_id":596749902}
{"request":{"street":"Lê Văn Tám, Vạn Phúc","latitude":"20.9806635","name":"Phố ẩm thực Vạn Phúc","street_number":"Lê Văn Tám, Vạn Phúc","type":"114","longitude":"105.7723757"},"way_id":596749902}
{"request":{"street":"Vietnam","latitude":"20.9805277","name":"Bonbon Chicken","street_number":"Vietnam","type":"50","longitude":"105.7726584"},"way_id":596749902}
{"request":{"street":"D26 Lê Văn Tám, Vạn Phúc","latitude":"20.9808025","name":"ITT Building","street_number":"D26 Lê Văn Tám, Vạn Phúc","type":"114","longitude":"105.7723381"},"way_id":596749902}
{"request":{"street":"Vạn Phúc","latitude":"20.9805148","name":"làng Vạn Phúc","street_number":"Vạn Phúc","type":"114","longitude":"105.7754643"},"way_id":596749902}
{"request":{"street":"Lk514-Dịch vụ 11, khu nhà Bè, Kiến Hưng","latitude":"20.9502821","name":"Bể hải sản-Hải sản Vugreen","street_number":"Lk514-Dịch vụ 11, khu nhà Bè, Kiến Hưng","type":"114","longitude":"105.7895644"},"way_id":595927269}
{"request":{"street":"LK495 DV10 Tổ 19","latitude":"20.9491599","name":"Dầu gội đen tóc Komi","street_number":"LK495 DV10 Tổ 19","type":"93","longitude":"105.7900231"},"way_id":595927269}
{"request":{"street":"Liền kề 495, Dịch vụ 10, Tổ 19","latitude":"20.9490084","name":"Shop Nội Thất Ô tô","street_number":"Liền kề 495, Dịch vụ 10, Tổ 19","type":"93","longitude":"105.7900262"},"way_id":595927269}
{"request":{"street":"Dịch vụ 22, liền kề 935, Khu đô thị Mậu Lương","latitude":"20.9485734","name":"Công Ty TNHH Kiến Trúc Xây Dựng Hưng Thịnh","street_number":"Dịch vụ 22, liền kề 935, Khu đô thị Mậu Lương","type":"114","longitude":"105.7900882"},"way_id":595927269}
{"request":{"street":"Lô 397 Dịch vụ 8 Đào Đất - Hàng Bè, Dịch vụ 10, Kiến Hưng","latitude":"20.9499563","name":"Dạy Trẻ Tự Kỷ","street_number":"Lô 397 Dịch vụ 8 Đào Đất - Hàng Bè, Dịch vụ 10, Kiến Hưng","type":"114","longitude":"105.7901953"},"way_id":595927269}
{"request":{"street":"Dịch Vụ 15 - Hàng Bè, Mậu Lương, Kiến Hưng","latitude":"20.9489840","name":"Thời trang OVY","street_number":"Dịch Vụ 15 - Hàng Bè, Mậu Lương, Kiến Hưng","type":"93","longitude":"105.7881496"},"way_id":595927269}
{"request":{"street":"Dịch Vụ, Lô 358, 7 Mậu Lương, Kiến Hưng","latitude":"20.9490193","name":"Ông Trùm Electrolux","street_number":"Dịch Vụ, Lô 358, 7 Mậu Lương, Kiến Hưng","type":"93","longitude":"105.7897326"},"way_id":595927269}
{"request":{"street":"421 Dịch vụ 10, Kiến Hưng","latitude":"20.9489921","name":"Công Ty Tnhh Sản Xuất Và Thương Mại Thái Trung Coconut","street_number":"421 Dịch vụ 10, Kiến Hưng","type":"114","longitude":"105.7898946"},"way_id":595927269}
{"request":{"street":"Phố Hoàng Công, Kiến Hưng","latitude":"20.9490808","name":"Thuốc mọc tóc Kaminomoto","street_number":"Phố Hoàng Công, Kiến Hưng","type":"93","longitude":"105.7899941"},"way_id":595927269}
{"request":{"street":"Lk 497, Dịch vụ 10, Kiến Hưng","latitude":"20.9490240","name":"Trà Chanh Boo Tea","street_number":"Lk 497, Dịch vụ 10, Kiến Hưng","type":"52","longitude":"105.7900338"},"way_id":595927269}
{"request":{"street":"Lk495 DV10, Tổ 19, Khu đô thị Mậu Lương","latitude":"20.9490487","name":"Phim cách nhiệt Ô tô - Phimcachnhiet.net","street_number":"Lk495 DV10, Tổ 19, Khu đô thị Mậu Lương","type":"114","longitude":"105.7900345"},"way_id":595927269}
{"request":{"street":"LK495 DV10 Tổ 19, Khu đô thị Mậu Lương","latitude":"20.9491188","name":"Đồ chơi ô tô - Shopdochoioto.vn","street_number":"LK495 DV10 Tổ 19, Khu đô thị Mậu Lương","type":"114","longitude":"105.7900237"},"way_id":595927269}
{"request":{"street":"LK 487, DV10, Đào đất, Hàng Bè, Kiến Hưng","latitude":"20.9491834","name":"Công Ty Cổ Phần Cơ Điện Và Xây Dựng Hà Nội","street_number":"LK 487, DV10, Đào đất, Hàng Bè, Kiến Hưng","type":"114","longitude":"105.7900232"},"way_id":595927269}
{"request":{"street":"Unnamed Road","latitude":"20.9490050","name":"Công ty Nam Thành Pool and Spa","street_number":"Unnamed Road","type":"114","longitude":"105.7894630"},"way_id":595927269}
{"request":{"street":"Liền Kề 840-DV19","latitude":"20.9487769","name":"Pool Spa Việt Nam","street_number":"Liền Kề 840-DV19","type":"114","longitude":"105.7895780"},"way_id":595927269}
{"request":{"street":"Nhà liền kề, 465 Dịch vụ 10, Khu đô thị","latitude":"20.9488716","name":"Giấy Dán Kính NND Chuyên Phim, Decal, Tranh Dán Kính","street_number":"Nhà liền kề, 465 Dịch vụ 10, Khu đô thị","type":"108","longitude":"105.7901126"},"way_id":595927269}
{"request":{"street":"Kiến Hưng","latitude":"20.9471125","name":"Khu đô thị Mậu Lương","street_number":"Kiến Hưng","type":"114","longitude":"105.7916057"},"way_id":595927269}
{"request":{"street":"undefined","latitude":"20.9578964","name":"Kho KOS","street_number":"undefined","type":"126","longitude":"105.7804545"},"way_id":599546940}
{"request":{"street":"undefined","latitude":"20.9579593","name":"Sưởng Gỗ Hải Anh","street_number":"undefined","type":"114","longitude":"105.7803439"},"way_id":599546940}
{"request":{"street":"undefined","latitude":"20.9580495","name":"Kho Kinh Đô","street_number":"undefined","type":"126","longitude":"105.7802447"},"way_id":599546940}
{"request":{"street":"undefined","latitude":"20.9578910","name":"Kho vali kéo hà nội kos hà cầu","street_number":"undefined","type":"114","longitude":"105.7804961"},"way_id":599546940}
{"request":{"street":"đường Phố Cầu Đơ, Kiến Hưng","latitude":"20.9578663","name":"Tổng kho vách vệ sinh compact - AID việt nam","street_number":"đường Phố Cầu Đơ, Kiến Hưng","type":"93","longitude":"105.7805214"},"way_id":599546940}
{"request":{"street":"khu liên hợp thể thao cây xanh sau sân bóng Cường, Quốc 2","latitude":"20.9577449","name":"Công ty TNHH MTV G-D Hà Nội","street_number":"khu liên hợp thể thao cây xanh sau sân bóng Cường, Quốc 2","type":"114","longitude":"105.7804413"},"way_id":599546940}
{"request":{"street":"undefined","latitude":"20.9577245","name":"Bảo Hộ Nam Bình","street_number":"undefined","type":"114","longitude":"105.7803684"},"way_id":599546940}
{"request":{"street":"Khu giao thương 365, Phố Tô Hiệu, Kiến Hưng","latitude":"20.9583623","name":"Xưởng PQH","street_number":"Khu giao thương 365, Phố Tô Hiệu, Kiến Hưng","type":"114","longitude":"105.7806031"},"way_id":599546940}
{"request":{"street":"Kiến Hưng","latitude":"20.9584795","name":"Công viên Hà Cầu","street_number":"Kiến Hưng","type":"54","longitude":"105.7802265"},"way_id":599546940}
{"request":{"street":"Khu Công Viên Cây Xanh","latitude":"20.9585668","name":"Nhà hàng Tre Viên Quán, Nhà hàng ngon tại Hà Đông Hà Nội, Quán ăn ngon tại Hà Đông Hà Nội","street_number":"Khu Công Viên Cây Xanh","type":"50","longitude":"105.7802961"},"way_id":599546940}
{"request":{"street":"Dịch vụ - Thể thao – Cây xanh, Khu, Lô CX-DV4","latitude":"20.9585978","name":"PHÚ QUANG HƯNG TECHNOLOGY JSC","street_number":"Dịch vụ - Thể thao – Cây xanh, Khu, Lô CX-DV4","type":"114","longitude":"105.7805552"},"way_id":599546940}
{"request":{"street":"undefined","latitude":"20.9813409","name":"2-12 Ngõ 77 Phố Lụa","street_number":"undefined","type":"114","longitude":"105.7767142"},"way_id":684921433}
{"request":{"street":"Đường Vạn Phúc, Vạn Phúc","latitude":"20.9812255","name":"Nhà Thuốc Song Châu","street_number":"Đường Vạn Phúc, Vạn Phúc","type":"93","longitude":"105.7765442"},"way_id":684921433}
{"request":{"street":"Đường Vạn Phúc, Vạn Phúc","latitude":"20.9812505","name":"Cửa Hàng Tạp Hóa Vân Dương","street_number":"Đường Vạn Phúc, Vạn Phúc","type":"93","longitude":"105.7765281"},"way_id":684921433}
{"request":{"street":"Hữu Hoà","latitude":"20.9459030","name":"Hữu Hoà","street_number":"Hữu Hoà","type":"2","longitude":"105.7967419"},"way_id":599197622}
{"request":{"street":"Dịch Vụ 14, Đìa lão","latitude":"20.9485381","name":"Công ty kizuna","street_number":"Dịch Vụ 14, Đìa lão","type":"114","longitude":"105.7936352"},"way_id":599197622}
{"request":{"street":"Unnamed Road, Hữu Hoà","latitude":"20.9487152","name":"Công ty cổ phần dược ABO","street_number":"Unnamed Road, Hữu Hoà","type":"114","longitude":"105.7937496"},"way_id":599197622}
{"request":{"street":"undefined","latitude":"20.9807575","name":"78-72 Phố Lụa","street_number":"undefined","type":"114","longitude":"105.7769072"},"way_id":684921421}
{"request":{"street":"81 Phố Lụa, Vạn Phúc","latitude":"20.9806665","name":"Cửa Hàng Vàng Mã Mậu Thắng","street_number":"81 Phố Lụa, Vạn Phúc","type":"93","longitude":"105.7768604"},"way_id":684921421}
{"request":{"street":"64 Phố Cầu Am, Vạn Phúc","latitude":"20.9786810","name":"Tiệm Bạc Ngọc Long","street_number":"64 Phố Cầu Am, Vạn Phúc","type":"93","longitude":"105.7753445"},"way_id":684922994}
{"request":{"street":"101, Chợ Vạn Phúc, Quận Hà Đông, Thành Phố Hà Nội, Vạn Phúc","latitude":"20.9787120","name":"Cửa Hàng Chăn Ga Gối Đệm Thắng Vịnh","street_number":"101, Chợ Vạn Phúc, Quận Hà Đông, Thành Phố Hà Nội, Vạn Phúc","type":"93","longitude":"105.7752460"},"way_id":684922994}
{"request":{"street":"undefined","latitude":"20.9786970","name":"Vạn Phúc GYM CENTER","street_number":"undefined","type":"4","longitude":"105.7753258"},"way_id":684922994}
{"request":{"street":"Khối Quyết tiến - P Vạn Phúc, Phường Vạn Phúc, Vạn Phúc","latitude":"20.9786910","name":"Công ty TNHH Tư vấn đầu tư xây dựng điện lực","street_number":"Khối Quyết tiến - P Vạn Phúc, Phường Vạn Phúc, Vạn Phúc","type":"114","longitude":"105.7753050"},"way_id":684922994}
{"request":{"street":"64 Phố Cầu Am, Vạn Phúc","latitude":"20.9786811","name":"Nhà Văn Hóa Quyết Thắng","street_number":"64 Phố Cầu Am, Vạn Phúc","type":"114","longitude":"105.7753446"},"way_id":684922994}
{"request":{"street":"66 Phố Cầu Am, Vạn Phúc","latitude":"20.9786941","name":"Nhà May Thúy","street_number":"66 Phố Cầu Am, Vạn Phúc","type":"93","longitude":"105.7751880"},"way_id":684922994}
{"request":{"street":"Unnamed Road","latitude":"20.9562642","name":"showroom cicohome","street_number":"Unnamed Road","type":"93","longitude":"105.7839734"},"way_id":682982638}
{"request":{"street":"LK168 ĐG04, Kiến Hưng, Kiến Hưng","latitude":"20.9562654","name":"CICOHOME","street_number":"LK168 ĐG04, Kiến Hưng, Kiến Hưng","type":"13","longitude":"105.7839873"},"way_id":682982638}
{"request":{"street":"Kiến Hưng","latitude":"20.9592584","name":"Đa Sỹ","street_number":"Kiến Hưng","type":"114","longitude":"105.7857359"},"way_id":682982638}
{"request":{"street":"undefined","latitude":"20.9782098","name":"Ngõ 85 Ngô Thì Sỹ","street_number":"undefined","type":"114","longitude":"105.7791216"},"way_id":684918825}
{"request":{"street":"K6, Vạn Phúc","latitude":"20.9781041","name":"Xưởng Balo Trọng Phát","street_number":"K6, Vạn Phúc","type":"93","longitude":"105.7790890"},"way_id":684918825}
{"request":{"street":"Ngô Thì Sỹ, Vạn Phúc","latitude":"20.9782130","name":"Sản xuất balo học sinh tại VietBags.Net","street_number":"Ngô Thì Sỹ, Vạn Phúc","type":"93","longitude":"105.7791050"},"way_id":684918825}
{"request":{"street":"83 Ngô Thì Sỹ, Vạn Phúc","latitude":"20.9780820","name":"Xưởng sỉ balo thời trang BAGGU.CLUB","street_number":"83 Ngô Thì Sỹ, Vạn Phúc","type":"93","longitude":"105.7792400"},"way_id":684918825}
{"request":{"street":"83 Ngô Thì Sỹ, Vạn Phúc","latitude":"20.9781142","name":"Dịch vụ-Giải pháp cho Khách hàng Doanh nghiệp VNPT VINAPHONE","street_number":"83 Ngô Thì Sỹ, Vạn Phúc","type":"114","longitude":"105.7792939"},"way_id":684918825}
{"request":{"street":"Vietnam","latitude":"20.9564161","name":"Đồ Gỗ Nội Thất 34","street_number":"Vietnam","type":"93","longitude":"105.7856836"},"way_id":682982639}
{"request":{"street":"undefined","latitude":"20.9522090","name":"Nghĩa trang thôn Mậu Lương","street_number":"undefined","type":"72","longitude":"105.7932566"},"way_id":599192289}
{"request":{"street":"undefined","latitude":"20.9817344","name":"49-37 Ng. 31 Phố Lụa","street_number":"undefined","type":"114","longitude":"105.7736042"},"way_id":675323299}
{"request":{"street":"Nhà 03, ngách 31/34 ( ngõ 31, Phố Lụa, Vạn Phúc","latitude":"20.9816891","name":"Chè Dừa COCO Vạn Phúc","street_number":"Nhà 03, ngách 31/34 ( ngõ 31, Phố Lụa, Vạn Phúc","type":"50","longitude":"105.7737614"},"way_id":675323299}
{"request":{"street":"Vietnam","latitude":"20.9814522","name":"Nhà Nghỉ Hương Trà","street_number":"Vietnam","type":"24","longitude":"105.7737719"},"way_id":675323299}
{"request":{"street":"Vietnam","latitude":"20.9817750","name":"Mạnh Hù Sửa Chữ Đồ Điện Dân Dụng","street_number":"Vietnam","type":"93","longitude":"105.7738135"},"way_id":675323299}
{"request":{"street":"SỐ 23 Ngõ 68, Vạn Phúc","latitude":"20.9813936","name":"Uniqlo","street_number":"SỐ 23 Ngõ 68, Vạn Phúc","type":"93","longitude":"105.7736979"},"way_id":675323299}
{"request":{"street":"undefined","latitude":"20.9813670","name":"Nhà nghỉ Vạn Phúc","street_number":"undefined","type":"24","longitude":"105.7737021"},"way_id":675323299}
{"request":{"street":"Ngõ 68, Vạn Phúc","latitude":"20.9813541","name":"Chè đồ ăn vặt bà Béo","street_number":"Ngõ 68, Vạn Phúc","type":"50","longitude":"105.7736887"},"way_id":675323299}
{"request":{"street":"Ngõ 31 Phố Lụa, Vạn Phúc","latitude":"20.9813594","name":"Cửa hàng vinaphone Vạn Phúc","street_number":"Ngõ 31 Phố Lụa, Vạn Phúc","type":"114","longitude":"105.7737663"},"way_id":675323299}
{"request":{"street":"undefined","latitude":"20.9518114","name":"Nghĩa Trang Nhân Dân Mậu Lương","street_number":"undefined","type":"72","longitude":"105.7925070"},"way_id":599192287}
{"request":{"street":"undefined","latitude":"20.9833911","name":"Kim Đồng","street_number":"undefined","type":"114","longitude":"105.7742677"},"way_id":675481715}
{"request":{"street":"undefined","latitude":"20.9837702","name":"Cửa Hàng Đồ Cổ Hoàng Giáp","street_number":"undefined","type":"93","longitude":"105.7746467"},"way_id":675481715}
{"request":{"street":"Khu Làng Nghề, Vạn Phúc","latitude":"20.9838500","name":"Cửa Hàng Đồ Cổ Gốm Việt","street_number":"Khu Làng Nghề, Vạn Phúc","type":"93","longitude":"105.7745634"},"way_id":675481715}
{"request":{"street":"Khu Làng Nghề","latitude":"20.9838313","name":"Nhà Sưu Tầm Lê Minh","street_number":"Khu Làng Nghề","type":"93","longitude":"105.7745097"},"way_id":675481715}
{"request":{"street":"undefined","latitude":"20.9774776","name":"34-36 Ngõ 36 Phố Cầu Am","street_number":"undefined","type":"114","longitude":"105.7762406"},"way_id":684923016}
{"request":{"street":"Vietnam","latitude":"20.9774985","name":"Đại Lý Túi Nilon Các Loại","street_number":"Vietnam","type":"93","longitude":"105.7759813"},"way_id":684923016}
{"request":{"street":"38 Phố Cầu Am, Vạn Phúc","latitude":"20.9774558","name":"Công Ty Thang Máy Tải Khách Mitsubishi Gia Đình Mini","street_number":"38 Phố Cầu Am, Vạn Phúc","type":"114","longitude":"105.7760245"},"way_id":684923016}
{"request":{"street":"Kiốt 11 mặt sau tòa nhà 2A, Khu nhà ở xã hội Hưng Thịnh, Kiến Hưng, Hà Đông Đại lý Nội trợ 4.0 Hanoi Hanoi City","latitude":"20.9480529","name":"Thịt mát MEAT Deli - cửa hàng thịt heo sạch","street_number":"Kiốt 11 mặt sau tòa nhà 2A, Khu nhà ở xã hội Hưng Thịnh, Kiến Hưng, Hà Đông Đại lý Nội trợ 4.0 Hanoi Hanoi City","type":"93","longitude":"105.7827113"},"way_id":595927256}
{"request":{"street":"Kiến Hưng","latitude":"20.9474890","name":"NHÀ SỐ - HOMEDIGITAL","street_number":"Kiến Hưng","type":"93","longitude":"105.7827890"},"way_id":595927256}
{"request":{"street":"Tầng 4, Tòa 1B Tòa Nhà Hưng Thịnh, Kiến Hưng","latitude":"20.9477066","name":"Xe đẩy hàng giá rẻ","street_number":"Tầng 4, Tòa 1B Tòa Nhà Hưng Thịnh, Kiến Hưng","type":"114","longitude":"105.7831075"},"way_id":595927256}
{"request":{"street":"Tầng 4, Tòa 1B Tòa Nhà Hưng Thịnh","latitude":"20.9482785","name":"Zuna.vn - Mua sắm trực tuyến uy tín số 1","street_number":"Tầng 4, Tòa 1B Tòa Nhà Hưng Thịnh","type":"114","longitude":"105.7833714"},"way_id":595927256}
{"request":{"street":"Vietnam","latitude":"20.9470192","name":"Thực Phẩm Sạch Ánh Plus","street_number":"Vietnam","type":"93","longitude":"105.7829204"},"way_id":595927256}
{"request":{"street":"Unnamed Road","latitude":"20.9471461","name":"Kđt Kiến Hưng","street_number":"Unnamed Road","type":"114","longitude":"105.7831472"},"way_id":595927256}
{"request":{"street":"Vietnam","latitude":"20.9469173","name":"Hà Huyền Thực Phẩm Sạch Các Loại","street_number":"Vietnam","type":"93","longitude":"105.7829714"},"way_id":595927256}
{"request":{"street":"Vietnam","latitude":"20.9468725","name":"Nhà Thuốc Nhật Minh","street_number":"Vietnam","type":"93","longitude":"105.7829924"},"way_id":595927256}
{"request":{"street":"khu đô thị mới Kiến Hưng phường, Kiến Hưng","latitude":"20.9469432","name":"Ban Quản Lý Tòa Nhà Hưng Thịnh","street_number":"khu đô thị mới Kiến Hưng phường, Kiến Hưng","type":"114","longitude":"105.7832541"},"way_id":595927256}
{"request":{"street":"undefined","latitude":"20.9469677","name":"Nhà Khim","street_number":"undefined","type":"114","longitude":"105.7833510"},"way_id":595927256}
{"request":{"street":"Khu đô thị mới","latitude":"20.9472056","name":"Khu Nhà Ở Hưng Thịnh","street_number":"Khu đô thị mới","type":"114","longitude":"105.7836014"},"way_id":595927256}
{"request":{"street":"Vietnam","latitude":"20.9467377","name":"Gv - Mart","street_number":"Vietnam","type":"93","longitude":"105.7830253"},"way_id":595927256}
{"request":{"street":"Vietnam","latitude":"20.9466838","name":"Thắm Hoàng","street_number":"Vietnam","type":"114","longitude":"105.7829895"},"way_id":595927256}
{"request":{"street":"Tòa 19T1, Tầng 1, Khu đô thị","latitude":"20.9449243","name":"Co.op Food Hà Đông Lucky House - Siêu Thị Vũ Gia","street_number":"Tòa 19T1, Tầng 1, Khu đô thị","type":"93","longitude":"105.7897085"},"way_id":707449226}
{"request":{"street":"19T1, khu đô thị","latitude":"20.9444649","name":"DẦU HÚNG CHANH MIRI KIDS","street_number":"19T1, khu đô thị","type":"93","longitude":"105.7895236"},"way_id":707449226}
{"request":{"street":"Phố Hoàng Công, Kiến Hưng","latitude":"20.9442152","name":"QUOC WIFI","street_number":"Phố Hoàng Công, Kiến Hưng","type":"93","longitude":"105.7894953"},"way_id":707449226}
{"request":{"street":"Phố Hoàng Công, Kiến Hưng","latitude":"20.9445579","name":"Lucky House - Tòa 19T1 Chung Cư Kiến Hưng, Hà Đông, Hà Nội","street_number":"Phố Hoàng Công, Kiến Hưng","type":"93","longitude":"105.7896093"},"way_id":707449226}
{"request":{"street":"19T1 Kiến Hưng, Kiến Hưng","latitude":"20.9445557","name":"MỸ NGHỆ BÍCH NGỌC","street_number":"19T1 Kiến Hưng, Kiến Hưng","type":"93","longitude":"105.7896199"},"way_id":707449226}
{"request":{"street":"Phố Hoàng Công, Kiến Hưng","latitude":"20.9448870","name":"Nhà Bác Bằng","street_number":"Phố Hoàng Công, Kiến Hưng","type":"114","longitude":"105.7894600"},"way_id":707449226}
{"request":{"street":"Hữu Hòa, Kiến Hưng","latitude":"20.9445229","name":"Chung cư 19T1 Kiến Hưng, Mậu Lương, Hà Đông - Thietbisieuthinhanh.vn","street_number":"Hữu Hòa, Kiến Hưng","type":"114","longitude":"105.7898610"},"way_id":707449226}
{"request":{"street":"Phố Hoàng Công, Kiến Hưng","latitude":"20.9446292","name":"Shop Quý Ông - Shop sinh lý chính hãng","street_number":"Phố Hoàng Công, Kiến Hưng","type":"114","longitude":"105.7899034"},"way_id":707449226}
{"request":{"street":"toà 19t1","latitude":"20.9451066","name":"công ty tnhh đầu tư thương mại dịch vụ vận tải thành hưng","street_number":"toà 19t1","type":"114","longitude":"105.7895375"},"way_id":707449226}
{"request":{"street":"Phố Hoàng Công, Kiến Hưng","latitude":"20.9440720","name":"19T1 KĐT Kiến Hưng","street_number":"Phố Hoàng Công, Kiến Hưng","type":"93","longitude":"105.7898735"},"way_id":707449226}
{"request":{"street":"undefined","latitude":"20.9614109","name":"Ngõ 106","street_number":"undefined","type":"114","longitude":"105.7979393"},"way_id":599518184}
{"request":{"street":"Kiến Hưng, Số nhà 27 Tổ 17","latitude":"20.9611390","name":"27 Đức Long - Nhà Nghỉ Trọ","street_number":"Kiến Hưng, Số nhà 27 Tổ 17","type":"24","longitude":"105.7978168"},"way_id":599518184}
{"request":{"street":"21 Tổ 15, Tân Triều","latitude":"20.9611221","name":"Phòng Trọ 21 Trang Nguyên","street_number":"21 Tổ 15, Tân Triều","type":"24","longitude":"105.7978019"},"way_id":599518184}
{"request":{"street":"Tổ 15","latitude":"20.9612797","name":"Điện tử Cường Thuận","street_number":"Tổ 15","type":"93","longitude":"105.7976468"},"way_id":599518184}
{"request":{"street":"số 70 ngõ 108 tổ 15, Đường Cầu Bươu","latitude":"20.9611000","name":"Hotel 70","street_number":"số 70 ngõ 108 tổ 15, Đường Cầu Bươu","type":"24","longitude":"105.7976521"},"way_id":599518184}
{"request":{"street":"15 Ngõ 104 Phố Yên Lãng, Tổ 15","latitude":"20.9615600","name":"Nhà Thuốc Tây Linh Trang","street_number":"15 Ngõ 104 Phố Yên Lãng, Tổ 15","type":"93","longitude":"105.7980000"},"way_id":599518184}
{"request":{"street":"Số 70, Ngõ 114, Tân Triều","latitude":"20.9580745","name":"Sản Xuất Việt","street_number":"Số 70, Ngõ 114, Tân Triều","type":"114","longitude":"105.8022948"},"way_id":616525486}
{"request":{"street":"27-ĐG 12-Khu đấu giá ĐT, Hữu Hoà","latitude":"20.9463684","name":"Sách Trà Quán","street_number":"27-ĐG 12-Khu đấu giá ĐT, Hữu Hoà","type":"52","longitude":"105.7929370"},"way_id":599148683}
{"request":{"street":"18 TT10 Khu Đô thị","latitude":"20.9463136","name":"Nhà Hàng Hiền Giang","street_number":"18 TT10 Khu Đô thị","type":"50","longitude":"105.7927788"},"way_id":599148683}
{"request":{"street":"Dg 12-25 tái định cư","latitude":"20.9462294","name":"Công Ty TNHH Dịch Vụ Và Thương Mại Karass Việt Nam","street_number":"Dg 12-25 tái định cư","type":"93","longitude":"105.7929295"},"way_id":599148683}
{"request":{"street":"Khu đô thị Mậu Lương","latitude":"20.9460509","name":"Nhà trọ Kiến Hưng","street_number":"Khu đô thị Mậu Lương","type":"114","longitude":"105.7929251"},"way_id":599148683}
{"request":{"street":"undefined","latitude":"20.9831298","name":"42-44 Ngõ 77 Phố Lụa","street_number":"undefined","type":"114","longitude":"105.7755693"},"way_id":684923005}
{"request":{"street":"67 Ngõ 77 Phố Lụa, Vạn Phúc","latitude":"20.9833651","name":"Học Thái Bảo","street_number":"67 Ngõ 77 Phố Lụa, Vạn Phúc","type":"114","longitude":"105.7753161"},"way_id":684923005}
{"request":{"street":"undefined","latitude":"20.9492669","name":"Dịch vụ 19","street_number":"undefined","type":"114","longitude":"105.7881322"},"way_id":599192256}
{"request":{"street":"Số nhà Dv13-Lk599, Mậu Lương, Kiến Hưng","latitude":"20.9494912","name":"Công Ty Tnhh Dệt May T \u0026 N","street_number":"Số nhà Dv13-Lk599, Mậu Lương, Kiến Hưng","type":"114","longitude":"105.7884064"},"way_id":599192256}
{"request":{"street":"Unnamed Road","latitude":"20.9496593","name":"CÔNG TY CP DORIC VIỆT NAM","street_number":"Unnamed Road","type":"114","longitude":"105.7885881"},"way_id":599192256}
{"request":{"street":"Dịch vụ 19, Kiến Hưng","latitude":"20.9496241","name":"Công ty TNHH Xây Dựng TXD","street_number":"Dịch vụ 19, Kiến Hưng","type":"114","longitude":"105.7882051"},"way_id":599192256}
{"request":{"street":"Lk 594, dịch vụ 13, Khu đô thị Mậu Lương","latitude":"20.9496846","name":"TXD Nhà Thầu Xây Dựng","street_number":"Lk 594, dịch vụ 13, Khu đô thị Mậu Lương","type":"114","longitude":"105.7881102"},"way_id":599192256}
{"request":{"street":"Kiến Hưng","latitude":"20.9511415","name":"Home Coca","street_number":"Kiến Hưng","type":"114","longitude":"105.7920990"},"way_id":599192276}
{"request":{"street":"ĐD Khu NƠ gia đình quân đội Bộ quốc phòng","latitude":"20.9511399","name":"Phụ Kiện Bổ Rẻ - Tai Nghe airpord - cáp sạc giá rẻ","street_number":"ĐD Khu NƠ gia đình quân đội Bộ quốc phòng","type":"93","longitude":"105.7917678"},"way_id":599192276}
{"request":{"street":"số 114 tổ 10","latitude":"20.9563191","name":"Trung tâm ngoại ngữ English Fun Số 114 tổ 10 khu dãn dân mậu lương kiến hưng hà đông hà nội","street_number":"số 114 tổ 10","type":"4","longitude":"105.7924507"},"way_id":599536675}
{"request":{"street":"undefined","latitude":"20.9800014","name":"Đường Vạn Phúc","street_number":"undefined","type":"114","longitude":"105.7721492"},"way_id":685028793}
{"request":{"street":"68, Hamlet 10, Van Phuc Street, Van Phuc Ward, Ha Dong District, Vạn Phúc","latitude":"20.9795993","name":"Huy Son Motorcar Parts Shop","street_number":"68, Hamlet 10, Van Phuc Street, Van Phuc Ward, Ha Dong District, Vạn Phúc","type":"93","longitude":"105.7721117"},"way_id":685028793}
{"request":{"street":"Khu Tập Thể, Vạn Phúc","latitude":"20.9793880","name":"Tập thể giấy Thăng Long","street_number":"Khu Tập Thể, Vạn Phúc","type":"114","longitude":"105.7721110"},"way_id":685028793}
{"request":{"street":"176 Đường Vạn Phúc, Vạn Phúc","latitude":"20.9795940","name":"Đại lý EVERON Vạn Phúc","street_number":"176 Đường Vạn Phúc, Vạn Phúc","type":"93","longitude":"105.7723326"},"way_id":685028793}
{"request":{"street":"130 Hà Đông","latitude":"20.9796539","name":"Beta Three Miền Bắc","street_number":"130 Hà Đông","type":"93","longitude":"105.7723069"},"way_id":685028793}
{"request":{"street":"148 Đường Vạn Phúc, Vạn Phúc","latitude":"20.9796539","name":"Mỹ Phẩm Thu Quang","street_number":"148 Đường Vạn Phúc, Vạn Phúc","type":"93","longitude":"105.7723070"},"way_id":685028793}
{"request":{"street":"85 Đường Vạn Phúc, Vạn Phúc","latitude":"20.9796500","name":"Kiên Review","street_number":"85 Đường Vạn Phúc, Vạn Phúc","type":"114","longitude":"105.7723115"},"way_id":685028793}
{"request":{"street":"87 Đường Vạn Phúc, Vạn Phúc","latitude":"20.9796973","name":"Dulux SCT68","street_number":"87 Đường Vạn Phúc, Vạn Phúc","type":"93","longitude":"105.7722777"},"way_id":685028793}
{"request":{"street":"Vietnam","latitude":"20.9796958","name":"Quang Hoa Đá Ốp Lát","street_number":"Vietnam","type":"114","longitude":"105.7722928"},"way_id":685028793}
{"request":{"street":"Ngõ 103 Vạn Phúc, Vạn Phúc","latitude":"20.9793243","name":"Minh Anh Company. Ltd","street_number":"Ngõ 103 Vạn Phúc, Vạn Phúc","type":"93","longitude":"105.7721713"},"way_id":685028793}
{"request":{"street":"Vietnam","latitude":"20.9797293","name":"Womax Tổng Kho Vật Liệu Xây Dựng","street_number":"Vietnam","type":"93","longitude":"105.7722817"},"way_id":685028793}
{"request":{"street":"146 Đường Vạn Phúc, P","latitude":"20.9796819","name":"Công Ty Cổ Phần Quảng Cáo và Nội Thất Mặt Trời","street_number":"146 Đường Vạn Phúc, P","type":"114","longitude":"105.7723590"},"way_id":685028793}
{"request":{"street":"69 Đường Vạn Phúc, Vạn Phúc","latitude":"20.9795325","name":"Công Ty Tnhh Xây Dựng Tm Long Thủy Phát","street_number":"69 Đường Vạn Phúc, Vạn Phúc","type":"114","longitude":"105.7724082"},"way_id":685028793}
{"request":{"street":"69 Đường Vạn Phúc, Vạn Phúc","latitude":"20.9795275","name":"Cơ Sở May Bạt Hòa Phát","street_number":"69 Đường Vạn Phúc, Vạn Phúc","type":"114","longitude":"105.7724136"},"way_id":685028793}
{"request":{"street":"61 Đường Vạn Phúc","latitude":"20.9797733","name":"Cửa Hàng Vlxd Bình Cảnh","street_number":"61 Đường Vạn Phúc","type":"93","longitude":"105.7722494"},"way_id":685028793}
{"request":{"street":"Khối Quyết Tiến, Đường Vạn Phúc, Vạn Phúc","latitude":"20.9797153","name":"Công ty TNHH Kỹ thuật và dịch vụ PGTEC","street_number":"Khối Quyết Tiến, Đường Vạn Phúc, Vạn Phúc","type":"114","longitude":"105.7723385"},"way_id":685028793}
{"request":{"street":"K09, Khu Đấu Giá Kiến Hưng Hà Cầu, Phường Kiến Hưng, Quận Hà Đông, Thành Phố Hà Nội, Kiến Hưng","latitude":"20.9450880","name":"Công Ty TNHH Kiến Trúc Xây Dựng Và Đầu Tư Phi Long","street_number":"K09, Khu Đấu Giá Kiến Hưng Hà Cầu, Phường Kiến Hưng, Quận Hà Đông, Thành Phố Hà Nội, Kiến Hưng","type":"114","longitude":"105.7909154"},"way_id":595927278}
{"request":{"street":"Kiến Hưng","latitude":"20.9453960","name":"Cháo Dinh Dưỡng Thanh Thảo","street_number":"Kiến Hưng","type":"50","longitude":"105.7903764"},"way_id":595927278}
{"request":{"street":"Khu đấu giá","latitude":"20.9454130","name":"Tòa nhà văn phòng kinh doanh DG5-18 Kiến Hưng","street_number":"Khu đấu giá","type":"114","longitude":"105.7903851"},"way_id":595927278}
{"request":{"street":"DG5-18, khu đấu giá, Kiến Hưng","latitude":"20.9454266","name":"Văn phòng kinh doanh DG5-18 Kiến Hưng","street_number":"DG5-18, khu đấu giá, Kiến Hưng","type":"114","longitude":"105.7903737"},"way_id":595927278}
{"request":{"street":"Phố Hoàng Công, Kiến Hưng","latitude":"20.9450023","name":"Trường THCS Kiến Hưng","street_number":"Phố Hoàng Công, Kiến Hưng","type":"5","longitude":"105.7910112"},"way_id":595927278}
{"request":{"street":"undefined","latitude":"20.9454547","name":"Tạp Hóa Anh Quyết","street_number":"undefined","type":"93","longitude":"105.7904369"},"way_id":595927278}
{"request":{"street":"Mậu Lương","latitude":"20.9449791","name":"HANDO575","street_number":"Mậu Lương","type":"93","longitude":"105.7901350"},"way_id":595927278}
{"request":{"street":"DG 05-06, khu đấu giá","latitude":"20.9448887","name":"Anh Ngữ Đỗ Nga","street_number":"DG 05-06, khu đấu giá","type":"5","longitude":"105.7901604"},"way_id":595927278}
{"request":{"street":"Khu đô thị Mậu Lương","latitude":"20.9449095","name":"Salon QT Forever","street_number":"Khu đô thị Mậu Lương","type":"93","longitude":"105.7901356"},"way_id":595927278}
{"request":{"street":"Unnamed, Quốc lộ 5, Kiến Hưng","latitude":"20.9451200","name":"Kho hàng cty điện Hoàng An","street_number":"Unnamed, Quốc lộ 5, Kiến Hưng","type":"114","longitude":"105.7901041"},"way_id":595927278}
{"request":{"street":"Đấu giá 05-16 khu đấu giá quyền sử đất, Mậu Lương, Kiến Hưng","latitude":"20.9454980","name":"Phòng khám chuyên khoa Nhi phương Thảo","street_number":"Đấu giá 05-16 khu đấu giá quyền sử đất, Mậu Lương, Kiến Hưng","type":"4","longitude":"105.7902882"},"way_id":595927278}
{"request":{"street":"Số 2 Ngõ 36 Phố Cầu Am, Vạn Phúc","latitude":"20.9774361","name":"Phở bò Hùng Béo, Vạn Phúc - Hà Đông","street_number":"Số 2 Ngõ 36 Phố Cầu Am, Vạn Phúc","type":"50","longitude":"105.7762744"},"way_id":600126477}
{"request":{"street":"Số 9 Ngõ 4 Phố, Vạn Phúc","latitude":"20.9776336","name":"Công Ty Tnhh Thương Mại Và Nội Thất Phú Thái","street_number":"Số 9 Ngõ 4 Phố, Vạn Phúc","type":"114","longitude":"105.7765363"},"way_id":600126477}
{"request":{"street":"làng Vạn Phúc","latitude":"20.9775340","name":"Nhà Lưu Niệm Bác Hồ","street_number":"làng Vạn Phúc","type":"114","longitude":"105.7766830"},"way_id":600126477}
{"request":{"street":"22 Ngõ 4 Phố, Ba Đình","latitude":"20.9773618","name":"Công Ty Cổ Phần Việt Hải Đăng","street_number":"22 Ngõ 4 Phố, Ba Đình","type":"114","longitude":"105.7760904"},"way_id":600126477}
{"request":{"street":"34 Ngõ 4, Phố","latitude":"20.9772418","name":"Công Ty Tnhh Dược Phẩm Hoàng Long Việt Nam","street_number":"34 Ngõ 4, Phố","type":"4","longitude":"105.7761973"},"way_id":600126477}
{"request":{"street":"2 Phố Cầu Am, Vạn Phúc","latitude":"20.9772717","name":"Công Ty Cổ Phần Đầu Tư Xây Dựng Và Thương Mại Quốc Tế Hdt Việt Nam","street_number":"2 Phố Cầu Am, Vạn Phúc","type":"114","longitude":"105.7761309"},"way_id":600126477}
{"request":{"street":"36a Phố Cầu Am, Vạn Phúc","latitude":"20.9772541","name":"Quán nướng chị em","street_number":"36a Phố Cầu Am, Vạn Phúc","type":"50","longitude":"105.7761097"},"way_id":600126477}
{"request":{"street":"Khu ĐG Ngõ Cổng","latitude":"20.9563374","name":"Khu Đấu giá Ngõ Cổng Kiến Hưng","street_number":"Khu ĐG Ngõ Cổng","type":"114","longitude":"105.7848634"},"way_id":599536642}
{"request":{"street":"Lô 184, Khu đấu giá Ngõ Cổng, Ph, Kiến Hưng","latitude":"20.9563193","name":"CÔNG TY TNHH ĐẦU TƯ THƯƠNG MẠI VÀ DỊCH VỤ KIẾN HƯNG","street_number":"Lô 184, Khu đấu giá Ngõ Cổng, Ph, Kiến Hưng","type":"114","longitude":"105.7846656"},"way_id":599536642}
{"request":{"street":"249 Tổ 7 Đa Sỹ, Kiến Hưng","latitude":"20.9564524","name":"Lemico Home","street_number":"249 Tổ 7 Đa Sỹ, Kiến Hưng","type":"93","longitude":"105.7848631"},"way_id":599536642}
{"request":{"street":"Tầng 6 58 lên, Lê Văn Thiêm, Kiến Hưng","latitude":"20.9558010","name":"Công ty zioncom - chi nhánh hà nội","street_number":"Tầng 6 58 lên, Lê Văn Thiêm, Kiến Hưng","type":"114","longitude":"105.7857450"},"way_id":599536642}
{"request":{"street":"Khu Đấu Giá, Đa Sỹ","latitude":"20.9564115","name":"Khểnh Sneaker","street_number":"Khu Đấu Giá, Đa Sỹ","type":"93","longitude":"105.7843977"},"way_id":599536642}
{"request":{"street":"Lô DG12_17 khu đấu giá QSD đất tái định cư","latitude":"20.9563030","name":"Đông Trùng Hạ Thảo An Thọ Khang","street_number":"Lô DG12_17 khu đấu giá QSD đất tái định cư","type":"93","longitude":"105.7842497"},"way_id":599536642}
{"request":{"street":"Vietnam","latitude":"20.9564123","name":"Cảnh Hồng Nhà Đất","street_number":"Vietnam","type":"114","longitude":"105.7841252"},"way_id":599536642}
{"request":{"street":"undefined","latitude":"20.9772798","name":"63-37 Ngô Thì Sỹ","street_number":"undefined","type":"114","longitude":"105.7784852"},"way_id":897081570}
{"request":{"street":"Vạn Phúc","latitude":"20.9771549","name":"Thuoc Bo Ba Bau Prenatal","street_number":"Vạn Phúc","type":"93","longitude":"105.7780402"},"way_id":897081570}
{"request":{"street":"33 Ngô Thì Sỹ, Ngõ 20 Đường Lê Trọng Tấn, Vạn Phúc","latitude":"20.9771783","name":"Trung Tín service","street_number":"33 Ngô Thì Sỹ, Ngõ 20 Đường Lê Trọng Tấn, Vạn Phúc","type":"114","longitude":"105.7777383"},"way_id":897081570}
{"request":{"street":"Unnamed Road, Hà Đông","latitude":"20.9774768","name":"CÔNG TY TNHH TƯ VẤN KIẾN TRÚC VÀ XÂY DỰNG HTA","street_number":"Unnamed Road, Hà Đông","type":"114","longitude":"105.7777282"},"way_id":897081570}
{"request":{"street":"Ngô Thì Sỹ, Vạn Phúc","latitude":"20.9770331","name":"Cửa hàng lụa Hà Silk","street_number":"Ngô Thì Sỹ, Vạn Phúc","type":"93","longitude":"105.7779028"},"way_id":897081570}
{"request":{"street":"Số 10 Ngõ 35 Phố Ngô Thì Sỹ, Vạn Phúc","latitude":"20.9775523","name":"Tổng thể cửa Winup","street_number":"Số 10 Ngõ 35 Phố Ngô Thì Sỹ, Vạn Phúc","type":"93","longitude":"105.7778490"},"way_id":897081570}
{"request":{"street":"68, Ngô Thì Sĩ, Quận Hà Đông, Thành Phố Hà Nội, Vạn Phúc","latitude":"20.9770150","name":"Cơ Sở Sản Xuất Khung Nhôm Kính Ngọc Hà","street_number":"68, Ngô Thì Sĩ, Quận Hà Đông, Thành Phố Hà Nội, Vạn Phúc","type":"93","longitude":"105.7779080"},"way_id":897081570}
{"request":{"street":"Vietnam","latitude":"20.9770163","name":"Trang Beauty Nail-Mi-Spa","street_number":"Vietnam","type":"84","longitude":"105.7779323"},"way_id":897081570}
{"request":{"street":"37, Ngô Thì Sĩ, Quận Hà Đông, Thành Phố Hà Nội, Vạn Phúc","latitude":"20.9771696","name":"Cửa Hàng Tự Chọn Hà Dân","street_number":"37, Ngô Thì Sĩ, Quận Hà Đông, Thành Phố Hà Nội, Vạn Phúc","type":"93","longitude":"105.7781051"},"way_id":897081570}
{"request":{"street":"47 Ngô Thì Sỹ, Vạn Phúc","latitude":"20.9770431","name":"Cơ Sở Inox Ngọc Thức","street_number":"47 Ngô Thì Sỹ, Vạn Phúc","type":"93","longitude":"105.7780194"},"way_id":897081570}
{"request":{"street":"ngõ 35 Ngô Thì Sỹ, Vạn Phúc","latitude":"20.9769980","name":"Yến Vinh Fast Food","street_number":"ngõ 35 Ngô Thì Sỹ, Vạn Phúc","type":"50","longitude":"105.7779792"},"way_id":897081570}
{"request":{"street":"81 Phố Ngô Thì Sỹ, Vạn Phúc, Hà Nội, Việt Nam","latitude":"20.9769490","name":"May balo quảng cáo","street_number":"81 Phố Ngô Thì Sỹ, Vạn Phúc, Hà Nội, Việt Nam","type":"13","longitude":"105.7779100"},"way_id":897081570}
{"request":{"street":"Vietnam","latitude":"20.9569172","name":"Tai Sin","street_number":"Vietnam","type":"114","longitude":"105.7950534"},"way_id":370306156}
{"request":{"street":"65 Đa Sỹ, Kiến Hưng","latitude":"20.9569621","name":"Cơ Sở Lắp Đặt Điện Nước Hải Bút","street_number":"65 Đa Sỹ, Kiến Hưng","type":"93","longitude":"105.7951819"},"way_id":370306156}
{"request":{"street":"32, Đường Mậu Lương, Phường Kiến Hưng, Quận Hà Đông, Kiến Hưng","latitude":"20.9567956","name":"Dịch Vụ Quảng Cáo Tân Toàn Phát","street_number":"32, Đường Mậu Lương, Phường Kiến Hưng, Quận Hà Đông, Kiến Hưng","type":"114","longitude":"105.7949770"},"way_id":370306156}
{"request":{"street":"61 Ngõ 73 Mậu Lương, Kiến Hưng","latitude":"20.9568017","name":"Nhà của Tùng","street_number":"61 Ngõ 73 Mậu Lương, Kiến Hưng","type":"114","longitude":"105.7950257"},"way_id":370306156}
{"request":{"street":"92 Mậu Lương, Kiến Hưng","latitude":"20.9568101","name":"Cafe Dương","street_number":"92 Mậu Lương, Kiến Hưng","type":"52","longitude":"105.7948077"},"way_id":370306156}
{"request":{"street":"Lô 3, LK8, Mậu Lương, Phường Kiến Hưng, Quận Hà Đông, Kiến Hưng","latitude":"20.9567604","name":"Quán Cà Phê","street_number":"Lô 3, LK8, Mậu Lương, Phường Kiến Hưng, Quận Hà Đông, Kiến Hưng","type":"114","longitude":"105.7949217"},"way_id":370306156}
{"request":{"street":"24, Đường Mậu Lương, Phường Kiến Hưng, Quận Hà Đông, Kiến Hưng","latitude":"20.9567732","name":"Cửa Hàng Tạp Hóa Phúc Hương","street_number":"24, Đường Mậu Lương, Phường Kiến Hưng, Quận Hà Đông, Kiến Hưng","type":"93","longitude":"105.7948256"},"way_id":370306156}
{"request":{"street":"Số 89 Mậu Lương, Kiến Hưng","latitude":"20.9566976","name":"Công Ty Cổ Phần Thương Mại Và Dịch Vụ Giao Hàng Siêu Việt","street_number":"Số 89 Mậu Lương, Kiến Hưng","type":"114","longitude":"105.7947508"},"way_id":370306156}
{"request":{"street":"Mậu Lương, Kiến Hưng","latitude":"20.9575408","name":"Nhà văn hoá tổ 11 mậu lương","street_number":"Mậu Lương, Kiến Hưng","type":"93","longitude":"105.7950117"},"way_id":370306156}
{"request":{"street":"Mậu Lương","latitude":"20.9566540","name":"CƠM BÌNH DÂN - BÚN MIẾN NGAN Mai Thương","street_number":"Mậu Lương","type":"50","longitude":"105.7948799"},"way_id":370306156}
{"request":{"street":"Đường Mậu Lương, Kiến Hưng","latitude":"20.9566611","name":"Màn hình Led - Làm biển quảng cáo Kiến Hưng","street_number":"Đường Mậu Lương, Kiến Hưng","type":"93","longitude":"105.7948255"},"way_id":370306156}
{"request":{"street":"91 Mậu Lương, Kiến Hưng","latitude":"20.9566799","name":"Đại Lý Gạo Hải Hậu 91","street_number":"91 Mậu Lương, Kiến Hưng","type":"93","longitude":"105.7947486"},"way_id":370306156}
{"request":{"street":"91 Mậu Lương, Kiến Hưng","latitude":"20.9566799","name":"Cửa Hàng Tự Chọn - Mậu Lương","street_number":"91 Mậu Lương, Kiến Hưng","type":"93","longitude":"105.7947485"},"way_id":370306156}
{"request":{"street":"Khu đô thị Xa La, Hà Đông","latitude":"20.9607743","name":"Teka Hà Nội - Phân phối dầu nhớt","street_number":"Khu đô thị Xa La, Hà Đông","type":"114","longitude":"105.7996350"},"way_id":599518219}
{"request":{"street":"CT6 Phố Xa La, P. Phúc La","latitude":"20.9607989","name":"Vest trẻ em đẹp","street_number":"CT6 Phố Xa La, P. Phúc La","type":"93","longitude":"105.7996546"},"way_id":599518219}
{"request":{"street":"2813, CT6B, Chung cư cao cấp và thương mại Bemes, Tân Triều","latitude":"20.9604446","name":"Công ty TNHH TMC ( CS3) - TMC CO., LTD (CS3)","street_number":"2813, CT6B, Chung cư cao cấp và thương mại Bemes, Tân Triều","type":"114","longitude":"105.7997306"},"way_id":599518219}
{"request":{"street":"17 Khu Giãn Dân Mậu Lương, Kiến Hưng","latitude":"20.9562047","name":"Công Ty Cp Tư Vấn Xây Dựng Thành Đô Hà Nội","street_number":"17 Khu Giãn Dân Mậu Lương, Kiến Hưng","type":"114","longitude":"105.7947457"},"way_id":600028575}
{"request":{"street":"20lk8, khu đấu giá, Mậu Lương","latitude":"20.9562086","name":"Cửa hàng quần áo Hồng Thành","street_number":"20lk8, khu đấu giá, Mậu Lương","type":"93","longitude":"105.7948048"},"way_id":600028575}
{"request":{"street":"13 Khu Giãn Dân Mậu Lương, Kiến Hưng","latitude":"20.9562398","name":"Cửa Hàng Bách Hóa Thảo Huyền","street_number":"13 Khu Giãn Dân Mậu Lương, Kiến Hưng","type":"93","longitude":"105.7945794"},"way_id":600028575}
{"request":{"street":"1 Khu Giãn Dân Mậu Lương, Kiến Hưng","latitude":"20.9560845","name":"Công Ty Cp Tư Vấn \u0026 Đầu Tư Phát Triển Công Nghệ Xây Dựng An Phát","street_number":"1 Khu Giãn Dân Mậu Lương, Kiến Hưng","type":"114","longitude":"105.7944345"},"way_id":600028575}
{"request":{"street":"Số 127 Đường Vạn Phúc, Vạn Phúc","latitude":"20.9806729","name":"Điện máy Vạn Phúc","street_number":"Số 127 Đường Vạn Phúc, Vạn Phúc","type":"93","longitude":"105.7715311"},"way_id":685031828}
{"request":{"street":"Khối Độc Lập, Phường Vạn Phúc, Quận Hà Đông, Vạn Phúc","latitude":"20.9805312","name":"Công Ty TNHH Nội Thất Ha\u0026D","street_number":"Khối Độc Lập, Phường Vạn Phúc, Quận Hà Đông, Vạn Phúc","type":"114","longitude":"105.7715589"},"way_id":685031828}
{"request":{"street":"123 Đường Vạn Phúc, Vạn Phúc","latitude":"20.9807172","name":"Công ty Cổ phần TDV Việt Nam","street_number":"123 Đường Vạn Phúc, Vạn Phúc","type":"93","longitude":"105.7715614"},"way_id":685031828}
{"request":{"street":"129 Đường tỉnh 70A, Vạn Phúc","latitude":"20.9808126","name":"CỬA HÀNG ĐIỆN MÁY TUẤN QUỲNH","street_number":"129 Đường tỉnh 70A, Vạn Phúc","type":"93","longitude":"105.7715245"},"way_id":685031828}
{"request":{"street":"40 Đường Vạn Phúc, Vạn Phúc","latitude":"20.9808398","name":"Nhà Nghỉ Hoa Cỏ","street_number":"40 Đường Vạn Phúc, Vạn Phúc","type":"24","longitude":"105.7714909"},"way_id":685031828}
{"request":{"street":"5 Đường Vạn Phúc, Vạn Phúc","latitude":"20.9806094","name":"Thời Trang Tóc Minh Luật","street_number":"5 Đường Vạn Phúc, Vạn Phúc","type":"100","longitude":"105.7716787"},"way_id":685031828}
{"request":{"street":"Đường Vạn Phúc, Vạn Phúc","latitude":"20.9806995","name":"Cửa Hàng Tủ Bếp Toàn Thắng","street_number":"Đường Vạn Phúc, Vạn Phúc","type":"93","longitude":"105.7716626"},"way_id":685031828}
{"request":{"street":"15 Đường Vạn Phúc, Vạn Phúc","latitude":"20.9807747","name":"Nhà Phân Phối Máy Điều Hòa Thu Thủy","street_number":"15 Đường Vạn Phúc, Vạn Phúc","type":"93","longitude":"105.7716143"},"way_id":685031828}
{"request":{"street":"15 Đường Vạn Phúc, Vạn Phúc","latitude":"20.9807496","name":"Nhà May Kim Thoa","street_number":"15 Đường Vạn Phúc, Vạn Phúc","type":"114","longitude":"105.7716357"},"way_id":685031828}
{"request":{"street":"Số 117 Đường Vạn Phúc, Vạn Phúc","latitude":"20.9806750","name":"Văn phòng luật sư Hoàng Đan","street_number":"Số 117 Đường Vạn Phúc, Vạn Phúc","type":"114","longitude":"105.7716791"},"way_id":685031828}
{"request":{"street":"Số 111 Đường Vạn Phúc, Vạn Phúc","latitude":"20.9805567","name":"Trung tâm trang trí nội thất Rèm Cửa Bảo Khánh","street_number":"Số 111 Đường Vạn Phúc, Vạn Phúc","type":"93","longitude":"105.7716867"},"way_id":685031828}
{"request":{"street":"11 Đường Vạn Phúc, Vạn Phúc","latitude":"20.9807046","name":"Cơ Sở Đá Ốp Lát Biển Đông","street_number":"11 Đường Vạn Phúc, Vạn Phúc","type":"93","longitude":"105.7716733"},"way_id":685031828}
{"request":{"street":"7 Đường Vạn Phúc, Vạn Phúc","latitude":"20.9806244","name":"Quán Phở Phương Giang","street_number":"7 Đường Vạn Phúc, Vạn Phúc","type":"50","longitude":"105.7716948"},"way_id":685031828}
{"request":{"street":"Đường Vạn Phúc, Vạn Phúc","latitude":"20.9806595","name":"Tiệm Sửa Xe Sơn Thủy","street_number":"Đường Vạn Phúc, Vạn Phúc","type":"114","longitude":"105.7716894"},"way_id":685031828}
{"request":{"street":"9 Đường Vạn Phúc, Vạn Phúc","latitude":"20.9808147","name":"Cửa Hàng Điện Máy Hòa Phú","street_number":"9 Đường Vạn Phúc, Vạn Phúc","type":"93","longitude":"105.7715982"},"way_id":685031828}
{"request":{"street":"19 Đường Vạn Phúc, Vạn Phúc","latitude":"20.9808198","name":"Đại Lý Xe Đạp Điện Beforeall","street_number":"19 Đường Vạn Phúc, Vạn Phúc","type":"93","longitude":"105.7715928"},"way_id":685031828}
{"request":{"street":"7 Đường Vạn Phúc","latitude":"20.9805739","name":"Cửa Hàng Điện Lạnh Hoài Oanh","street_number":"7 Đường Vạn Phúc","type":"93","longitude":"105.7717037"},"way_id":685031828}
{"request":{"street":"undefined","latitude":"20.9800178","name":"16 Phố Lụa","street_number":"undefined","type":"114","longitude":"105.7746516"},"way_id":675323296}
{"request":{"street":"Đường Vạn Phúc, Vạn Phúc","latitude":"20.9801035","name":"Ngân Hàng Chính Sách Xã Hội (Vbsp) - Đgd Phường Vạn Phúc","street_number":"Đường Vạn Phúc, Vạn Phúc","type":"59","longitude":"105.7748437"},"way_id":675323296}
{"request":{"street":"35 Phố Lụa, Vạn Phúc","latitude":"20.9800455","name":"Công Ty Cổ Phần Giao Nhận Hàng Không Vasco","street_number":"35 Phố Lụa, Vạn Phúc","type":"114","longitude":"105.7747355"},"way_id":675323296}
{"request":{"street":"Phố Lụa, Vạn Phúc","latitude":"20.9800234","name":"Bưu Điện Xã Vạn Phúc","street_number":"Phố Lụa, Vạn Phúc","type":"73","longitude":"105.7747257"},"way_id":675323296}
{"request":{"street":"Khối Chiến Thắng, Vạn Phúc","latitude":"20.9799182","name":"Bưu điện văn hóa Vạn Phúc","street_number":"Khối Chiến Thắng, Vạn Phúc","type":"73","longitude":"105.7747676"},"way_id":675323296}
{"request":{"street":"Đường Vạn Phúc, Vạn Phúc","latitude":"20.9800634","name":"Văn Phòng Hiệp Hội Dệt Lụa Tơ Tằm \u0026 Hiệp Hội Làng Nghề Vạn Phúc","street_number":"Đường Vạn Phúc, Vạn Phúc","type":"114","longitude":"105.7746613"},"way_id":675323296}
{"request":{"street":"Đường Vạn Phúc, Vạn Phúc","latitude":"20.9798888","name":"UBND phường Vạn Phúc","street_number":"Đường Vạn Phúc, Vạn Phúc","type":"128","longitude":"105.7749319"},"way_id":675323296}
{"request":{"street":"20 Phố Lụa, Vạn Phúc","latitude":"20.9801517","name":"Công Ty Cổ Phần Thuận Thiên Đường","street_number":"20 Phố Lụa, Vạn Phúc","type":"114","longitude":"105.7750243"},"way_id":675323296}
{"request":{"street":"31 Phố Lụa, Vạn Phúc","latitude":"20.9800224","name":"Công Ty Tnhh Dịch Vụ Ăn Uống Mai Hương","street_number":"31 Phố Lụa, Vạn Phúc","type":"50","longitude":"105.7746341"},"way_id":675323296}
{"request":{"street":"Ao Đình, Phường Dương Nội, Quận Hà Đông, Thành Phố Hà Nội, Vạn Phúc","latitude":"20.9802541","name":"Cửa Hàng Điện Máy Thành Nhàn","street_number":"Ao Đình, Phường Dương Nội, Quận Hà Đông, Thành Phố Hà Nội, Vạn Phúc","type":"93","longitude":"105.7748682"},"way_id":675323296}
{"request":{"street":"Ngõ 31 Phố Lụa, Vạn Phúc","latitude":"20.9800086","name":"Dịch Vụ Máy In 24h","street_number":"Ngõ 31 Phố Lụa, Vạn Phúc","type":"114","longitude":"105.7746236"},"way_id":675323296}
{"request":{"street":"undefined","latitude":"20.9510117","name":"39-15 Dịch Vụ 1 Hàng Bè","street_number":"undefined","type":"114","longitude":"105.7889899"},"way_id":683254337}
{"request":{"street":"203 Dịch Vụ 4 Hàng Bè, Kiến Hưng","latitude":"20.9508716","name":"Nguyễn Đăng Khởi","street_number":"203 Dịch Vụ 4 Hàng Bè, Kiến Hưng","type":"24","longitude":"105.7890641"},"way_id":683254337}
{"request":{"street":"Unnamed Road","latitude":"20.9507391","name":"Trung tâm Anh ngữ EFA Cơ sở 2","street_number":"Unnamed Road","type":"5","longitude":"105.7888257"},"way_id":683254337}
{"request":{"street":"Phố Hoàng Công, Kiến Hưng","latitude":"20.9504992","name":"Công ty May Thành Tâm","street_number":"Phố Hoàng Công, Kiến Hưng","type":"114","longitude":"105.7893363"},"way_id":683254337}
{"request":{"street":"Khu đô thị Mậu Lương","latitude":"20.9505732","name":"Công Ti TNHH May Thành Tâm","street_number":"Khu đô thị Mậu Lương","type":"114","longitude":"105.7893668"},"way_id":683254337}
{"request":{"street":"Dịch Vụ 1 Hàng Bè, Kiến Hưng","latitude":"20.9508555","name":"Nam Trần Nhôm Kính-Cửa Thủy Lực","street_number":"Dịch Vụ 1 Hàng Bè, Kiến Hưng","type":"114","longitude":"105.7892762"},"way_id":683254337}
{"request":{"street":"Unnamed Road, Khu đô thị Mậu Lương","latitude":"20.9509425","name":"Xôi Gà Ông Tú","street_number":"Unnamed Road, Khu đô thị Mậu Lương","type":"50","longitude":"105.7890715"},"way_id":683254337}
{"request":{"street":"Liền kề 319 Dịch vụ 7 Khu Hàng Bè, Mậu Lương, Kiến Hưng","latitude":"20.9504990","name":"Trung tâm Anh ngữ EFA CS2","street_number":"Liền kề 319 Dịch vụ 7 Khu Hàng Bè, Mậu Lương, Kiến Hưng","type":"5","longitude":"105.7887490"},"way_id":683254337}
{"request":{"street":"Unnamed Road, Kiến Hưng","latitude":"20.9510181","name":"Điện Lạnh Bảo Ngọc","street_number":"Unnamed Road, Kiến Hưng","type":"114","longitude":"105.7890459"},"way_id":683254337}
{"request":{"street":"LK 27 - DV01, Khu đô thị Mậu Lương","latitude":"20.9510080","name":"Nội Thất Tuấn Thành","street_number":"LK 27 - DV01, Khu đô thị Mậu Lương","type":"93","longitude":"105.7889440"},"way_id":683254337}
{"request":{"street":"Dịch Vụ 1 Hàng Bè, Kiến Hưng","latitude":"20.9509696","name":"Mầm Non Ngôi Nhà Ước Mơ","street_number":"Dịch Vụ 1 Hàng Bè, Kiến Hưng","type":"114","longitude":"105.7892840"},"way_id":683254337}
{"request":{"street":"Dịch Vụ 1 Hàng Bè, Kiến Hưng","latitude":"20.9509870","name":"Thanh Hoàng Cơ Khí Tổng Hợp","street_number":"Dịch Vụ 1 Hàng Bè, Kiến Hưng","type":"114","longitude":"105.7892738"},"way_id":683254337}
{"request":{"street":"21dv1 Hàng Bè, Mậu Lương","latitude":"20.9511222","name":"Nhà hàng Trung Thông","street_number":"21dv1 Hàng Bè, Mậu Lương","type":"50","longitude":"105.7888278"},"way_id":683254337}
{"request":{"street":"497 Dịch vụ 10, Kiến Hưng","latitude":"20.9506840","name":"Công ty Cổ phần Môi trường Xây dựng Asia","street_number":"497 Dịch vụ 10, Kiến Hưng","type":"114","longitude":"105.7896298"},"way_id":683254337}
{"request":{"street":"Hà Đông","latitude":"20.9762988","name":"HM 1986 Coffee","street_number":"Hà Đông","type":"52","longitude":"105.7762054"},"way_id":685031829}
{"request":{"street":"undefined","latitude":"20.9762814","name":"VẠN PHÚC COFFEE","street_number":"undefined","type":"114","longitude":"105.7762703"},"way_id":685031829}
{"request":{"street":"430, Vạn Phúc, Phường Vạn Phúc, Quận Hà Đông, Thành Phố Hà Nội, Vạn Phúc","latitude":"20.9763419","name":"Công Ty TNHH Xuất Nhập Khẩu Tep Việt Nam","street_number":"430, Vạn Phúc, Phường Vạn Phúc, Quận Hà Đông, Thành Phố Hà Nội, Vạn Phúc","type":"93","longitude":"105.7760185"},"way_id":685031829}
{"request":{"street":"8 Đường Vạn Phúc, Vạn Phúc","latitude":"20.9762852","name":"Công Ty Tnhh Thương Mại Sản Xuất Phụ Kiện Ngành Cửa Tân Hiệp Phát","street_number":"8 Đường Vạn Phúc, Vạn Phúc","type":"114","longitude":"105.7763114"},"way_id":685031829}
{"request":{"street":"7 Đường Vạn Phúc, Vạn Phúc","latitude":"20.9762285","name":"Virgo Chè Xôi - Số 7 Vạn Phúc","street_number":"7 Đường Vạn Phúc, Vạn Phúc","type":"93","longitude":"105.7763496"},"way_id":685031829}
{"request":{"street":"Số 11 Đường Vạn Phúc, Vạn Phúc","latitude":"20.9763419","name":"Công Ty Cổ Phần Y Tế Vạn Phúc Hà Nội","street_number":"Số 11 Đường Vạn Phúc, Vạn Phúc","type":"114","longitude":"105.7762733"},"way_id":685031829}
{"request":{"street":"số 7 Đường Vạn Phúc, Vạn Phúc","latitude":"20.9762159","name":"Spa T\u0026T (Thoa)","street_number":"số 7 Đường Vạn Phúc, Vạn Phúc","type":"4","longitude":"105.7763580"},"way_id":685031829}
{"request":{"street":"430 Đường Vạn Phúc, Vạn Phúc","latitude":"20.9763669","name":"Ngõ Cà Phê","street_number":"430 Đường Vạn Phúc, Vạn Phúc","type":"52","longitude":"105.7759505"},"way_id":685031829}
{"request":{"street":"Số 6 Lương Thực, Đường Cầu Am, Quận Hà Đông,Hà Nội,Việt Nam, ĐT70A Đường Vạn Phúc, Vạn Phúc","latitude":"20.9763181","name":"Cửa hàng kính mắt Quang Thọ","street_number":"Số 6 Lương Thực, Đường Cầu Am, Quận Hà Đông,Hà Nội,Việt Nam, ĐT70A Đường Vạn Phúc, Vạn Phúc","type":"93","longitude":"105.7763578"},"way_id":685031829}
{"request":{"street":"undefined","latitude":"20.9572217","name":"Đường Vũ Văn Trường","street_number":"undefined","type":"114","longitude":"105.7931156"},"way_id":599536688}
{"request":{"street":"số 73 tổ 9, Mậu Lương","latitude":"20.9575300","name":"Hạnhh Mỹ Store","street_number":"số 73 tổ 9, Mậu Lương","type":"93","longitude":"105.7923840"},"way_id":599536688}
{"request":{"street":"Vietnam","latitude":"20.9576637","name":"Nhà Thuốc Minh Khánh","street_number":"Vietnam","type":"93","longitude":"105.7928304"},"way_id":599536688}
{"request":{"street":"82 tổ 9, Kiến Hưng","latitude":"20.9577107","name":"Tiện ích Lâm Phương","street_number":"82 tổ 9, Kiến Hưng","type":"93","longitude":"105.7928483"},"way_id":599536688}
{"request":{"street":"chợ Mậu Lương, 109 tổ 9 sau nhà văn hóa tổ 9","latitude":"20.9574596","name":"Kalhome Công Ty Cổ Phần Máy Lọc Nước","street_number":"chợ Mậu Lương, 109 tổ 9 sau nhà văn hóa tổ 9","type":"114","longitude":"105.7922915"},"way_id":599536688}
{"request":{"street":"tổ 9 Mậu Lương, Kiến Hưng","latitude":"20.9573995","name":"Cửa Hàng Gas Hà Thành BestHouse số 5","street_number":"tổ 9 Mậu Lương, Kiến Hưng","type":"93","longitude":"105.7922713"},"way_id":599536688}
{"request":{"street":"chợ Mậu Lương, 109 tổ 9 sau nhà văn hóa tổ 9","latitude":"20.9574752","name":"Nhà Mèo Hương","street_number":"chợ Mậu Lương, 109 tổ 9 sau nhà văn hóa tổ 9","type":"114","longitude":"105.7922257"},"way_id":599536688}
{"request":{"street":"undefined","latitude":"20.9571053","name":"Cửa hàng gas Mậu Lương - Gas ABC","street_number":"undefined","type":"93","longitude":"105.7924371"},"way_id":599536688}
{"request":{"street":"Đường Vũ Văn Trường, Mậu Lương","latitude":"20.9572557","name":"Chợ Mậu Lương","street_number":"Đường Vũ Văn Trường, Mậu Lương","type":"114","longitude":"105.7931361"},"way_id":599536688}
{"request":{"street":"undefined","latitude":"20.9576622","name":"Nhà văn hóa thôn Mậu Lương","street_number":"undefined","type":"114","longitude":"105.7925687"},"way_id":599536688}
{"request":{"street":"Khu đô thị Mậu Lương","latitude":"20.9440954","name":"Sửa chữa cửa cuốn","street_number":"Khu đô thị Mậu Lương","type":"114","longitude":"105.7916353"},"way_id":595927280}
{"request":{"street":"Kiến Hưng","latitude":"20.9449888","name":"Trường Trung học Kiến Hưng","street_number":"Kiến Hưng","type":"5","longitude":"105.7913684"},"way_id":595927280}
{"request":{"street":"Kiến Hưng","latitude":"20.9548347","name":"Watercon - công ty thủy châu","street_number":"Kiến Hưng","type":"93","longitude":"105.7936905"},"way_id":599197644}
{"request":{"street":"26 Liền kề 14, Mậu Lương, Kiến Hưng","latitude":"20.9549723","name":"Vua Kem Thủy Châu","street_number":"26 Liền kề 14, Mậu Lương, Kiến Hưng","type":"13","longitude":"105.7937372"},"way_id":599197644}
{"request":{"street":"24 LK 15, Khu đô thị Mậu Lương","latitude":"20.9546195","name":"Công ty TNHh Adelaide việt nam","street_number":"24 LK 15, Khu đô thị Mậu Lương","type":"114","longitude":"105.7940742"},"way_id":599197644}
{"request":{"street":"Lô 5 liền kề, 14 Mậu Lương, Kiến Hưng","latitude":"20.9548045","name":"Xưởng nội thất thành phát","street_number":"Lô 5 liền kề, 14 Mậu Lương, Kiến Hưng","type":"114","longitude":"105.7938915"},"way_id":599197644}
{"request":{"street":"Lô 19 lK 14, Khu đô thị Mậu Lương","latitude":"20.9545428","name":"CÔNG TY TNHH VITRAMEX VIỆT NAM","street_number":"Lô 19 lK 14, Khu đô thị Mậu Lương","type":"114","longitude":"105.7937736"},"way_id":599197644}
{"request":{"street":"Số 26 liền kề14, Mậu Lương, Kiến Hưng","latitude":"20.9548598","name":"Máy làm kem tươi Brullen","street_number":"Số 26 liền kề14, Mậu Lương, Kiến Hưng","type":"93","longitude":"105.7938097"},"way_id":599197644}
{"request":{"street":"26 Mậu Lương, Kiến Hưng","latitude":"20.9548471","name":"Nhà a chị","street_number":"26 Mậu Lương, Kiến Hưng","type":"114","longitude":"105.7937130"},"way_id":599197644}
{"request":{"street":"Số 26 LK, 14 Mậu Lương, Kiến Hưng","latitude":"20.9548747","name":"Nhà phân phối bột làm kem Vua Kem","street_number":"Số 26 LK, 14 Mậu Lương, Kiến Hưng","type":"114","longitude":"105.7937383"},"way_id":599197644}
{"request":{"street":"Số nhà 26 Liền kề 14, Khu đô thị Mậu Lương","latitude":"20.9548754","name":"Công ty TADAVINA","street_number":"Số nhà 26 Liền kề 14, Khu đô thị Mậu Lương","type":"114","longitude":"105.7937385"},"way_id":599197644}
{"request":{"street":"Số 11, LK 15 , Khu Đấu Giá QSD, Mậu Lương, Hữu Hoà","latitude":"20.9544464","name":"Công Ty THHH xây dựng và chống thấm Hoàng Minh","street_number":"Số 11, LK 15 , Khu Đấu Giá QSD, Mậu Lương, Hữu Hoà","type":"114","longitude":"105.7941208"},"way_id":599197644}
{"request":{"street":"Số 24 Liền Kề 14 Mậu Lương TP","latitude":"20.9547398","name":"Máy làm kem cũ - Hà Nội","street_number":"Số 24 Liền Kề 14 Mậu Lương TP","type":"114","longitude":"105.7936286"},"way_id":599197644}
{"request":{"street":"Số 26 liền kề, 14 Mậu Lương, Kiến Hưng","latitude":"20.9548131","name":"Cho thuê máy pha cafe","street_number":"Số 26 liền kề, 14 Mậu Lương, Kiến Hưng","type":"114","longitude":"105.7936455"},"way_id":599197644}
{"request":{"street":"Số 220 Liền Kề, 14 Mậu Lương, Kiến Hưng","latitude":"20.9546086","name":"Công ty cổ phần NC Việt Nam","street_number":"Số 220 Liền Kề, 14 Mậu Lương, Kiến Hưng","type":"114","longitude":"105.7935997"},"way_id":599197644}
{"request":{"street":"Số 26 Liền kề 14, Khu đô thị Mậu Lương","latitude":"20.9548484","name":"Máy làm kem Vua Kem","street_number":"Số 26 Liền kề 14, Khu đô thị Mậu Lương","type":"114","longitude":"105.7936552"},"way_id":599197644}
{"request":{"street":"Số 26 liền kề 14, Khu đô thị Mậu Lương","latitude":"20.9548496","name":"Dạy làm kem Vua Kem","street_number":"Số 26 liền kề 14, Khu đô thị Mậu Lương","type":"5","longitude":"105.7936558"},"way_id":599197644}
{"request":{"street":"18 Khu Giãn Dân Mậu Lương, Hữu Hoà","latitude":"20.9543411","name":"Công Ty Cp Đầu Tư Xây Dựng \u0026 Thương Mại Minh Thành","street_number":"18 Khu Giãn Dân Mậu Lương, Hữu Hoà","type":"114","longitude":"105.7938605"},"way_id":599197644}
{"request":{"street":"Số 26 Liền kề, 14 Mậu Lương, Kiến Hưng","latitude":"20.9549351","name":"PAFO Co., LTD","street_number":"Số 26 Liền kề, 14 Mậu Lương, Kiến Hưng","type":"114","longitude":"105.7936895"},"way_id":599197644}
{"request":{"street":"undefined","latitude":"20.9777023","name":"37-27 Đường Vạn Phúc","street_number":"undefined","type":"114","longitude":"105.7750196"},"way_id":598788853}
{"request":{"street":"430 Đường Vạn Phúc, Vạn Phúc","latitude":"20.9776442","name":"Đại Lý Lâm Hùng","street_number":"430 Đường Vạn Phúc, Vạn Phúc","type":"93","longitude":"105.7749224"},"way_id":598788853}
{"request":{"street":"208 Đường Vạn Phúc","latitude":"20.9777644","name":"Cửa Hàng Điện Lạnh Long Hào","street_number":"208 Đường Vạn Phúc","type":"114","longitude":"105.7749419"},"way_id":598788853}
{"request":{"street":"VN Hanoi City, Số 6 Ngõ 25 Đường Vạn Phúc, Vạn Phúc","latitude":"20.9774442","name":"ohbake","street_number":"VN Hanoi City, Số 6 Ngõ 25 Đường Vạn Phúc, Vạn Phúc","type":"93","longitude":"105.7747945"},"way_id":598788853}
{"request":{"street":"L3.01 Golden Silk Complex, 430","latitude":"20.9773351","name":"Phòng Răng Bs. Giang","street_number":"L3.01 Golden Silk Complex, 430","type":"4","longitude":"105.7747448"},"way_id":598788853}
{"request":{"street":"Đường 430, Phường Vạn Phúc, Quận Hà Đông, TP. Hà Nội","latitude":"20.9773924","name":"HTX Vận Tải Tín Lợi","street_number":"Đường 430, Phường Vạn Phúc, Quận Hà Đông, TP. Hà Nội","type":"113","longitude":"105.7746196"},"way_id":598788853}
{"request":{"street":"4 Ngõ 25 Đường Vạn Phúc, Vạn Phúc","latitude":"20.9775186","name":"Núi - Trà đá Vạn Phúc","street_number":"4 Ngõ 25 Đường Vạn Phúc, Vạn Phúc","type":"93","longitude":"105.7748695"},"way_id":598788853}
{"request":{"street":"undefined","latitude":"20.9772652","name":"Nha khoa Newsmile Đăng Khôi","street_number":"undefined","type":"4","longitude":"105.7747963"},"way_id":598788853}
{"request":{"street":"Đường Vạn Phúc, Vạn Phúc","latitude":"20.9774890","name":"Cơ Sở In Phun Long Oanh","street_number":"Đường Vạn Phúc, Vạn Phúc","type":"114","longitude":"105.7745494"},"way_id":598788853}
{"request":{"street":"Đường Vạn Phúc, Vạn Phúc","latitude":"20.9776369","name":"Cửa Hàng Tạp Hóa Tú Anh","street_number":"Đường Vạn Phúc, Vạn Phúc","type":"93","longitude":"105.7749131"},"way_id":598788853}
{"request":{"street":"Đường 430 Cầu Am, Vạn Phúc","latitude":"20.9772000","name":"Công Ty TNHH Best Seeds Việt Nam","street_number":"Đường 430 Cầu Am, Vạn Phúc","type":"114","longitude":"105.7749000"},"way_id":598788853}
{"request":{"street":"Số 11, LK 10, Khu đấu giá Mậu Lương, P Kiến Hưng, Q","latitude":"20.9776422","name":"Công Ty Cổ Phần Công Nghiệp Bk Vina","street_number":"Số 11, LK 10, Khu đấu giá Mậu Lương, P Kiến Hưng, Q","type":"114","longitude":"105.7749571"},"way_id":598788853}
{"request":{"street":"Gold Silk, L2.3, Khu Đô Thi","latitude":"20.9771700","name":"Tiệm Phun Thêu Huyền Trang","street_number":"Gold Silk, L2.3, Khu Đô Thi","type":"84","longitude":"105.7749000"},"way_id":598788853}
{"request":{"street":"Vietnam","latitude":"20.9772595","name":"Nhà Thuốc Nhật Quang","street_number":"Vietnam","type":"93","longitude":"105.7744874"},"way_id":598788853}
{"request":{"street":"Vietnam","latitude":"20.9773858","name":"Ngọc Diệp Giặt Khô Là Hơi","street_number":"Vietnam","type":"114","longitude":"105.7744305"},"way_id":598788853}
{"request":{"street":"54 Đường tỉnh 70A, Vạn Phúc","latitude":"20.9775640","name":"12 ngõ 39 đường Vạn Phúc, Hà Đông, Hà Nội","street_number":"54 Đường tỉnh 70A, Vạn Phúc","type":"114","longitude":"105.7744530"},"way_id":598788853}
{"request":{"street":"Vietnam","latitude":"20.9776726","name":"Dung Tran","street_number":"Vietnam","type":"114","longitude":"105.7749672"},"way_id":598788853}
{"request":{"street":"54 Đường tỉnh 70A, Vạn Phúc","latitude":"20.9775226","name":"Phương Loan Shop","street_number":"54 Đường tỉnh 70A, Vạn Phúc","type":"93","longitude":"105.7744337"},"way_id":598788853}
{"request":{"street":"430","latitude":"20.9774458","name":"Tocotoco Vạn Phúc - Hà Đông","street_number":"430","type":"114","longitude":"105.7750871"},"way_id":598788853}
{"request":{"street":"A2, Khu Giãn Dân Mậu Lương Phường Kiến Hưng, Quận Hà Đông, Kiến Hưng","latitude":"20.9567001","name":"Cửa Hàng Gạch Ốp Lát Đức Mạnh","street_number":"A2, Khu Giãn Dân Mậu Lương Phường Kiến Hưng, Quận Hà Đông, Kiến Hưng","type":"93","longitude":"105.7912393"},"way_id":599536678}
{"request":{"street":"Lô 88, Khu Giãn Dân Mậu Lương, Phường Kiến Hưng, Quận Hà Đông, Kiến Hưng","latitude":"20.9565832","name":"Trung Tâm Giao Dịch Bất Động Sản Cát Tường","street_number":"Lô 88, Khu Giãn Dân Mậu Lương, Phường Kiến Hưng, Quận Hà Đông, Kiến Hưng","type":"114","longitude":"105.7912812"},"way_id":599536678}
{"request":{"street":"Kiến Hưng","latitude":"20.9563922","name":"Thực phẩm Thu Dũng","street_number":"Kiến Hưng","type":"93","longitude":"105.7911539"},"way_id":599536678}
{"request":{"street":"undefined","latitude":"20.9565012","name":"ĐẤT NHÀ","street_number":"undefined","type":"114","longitude":"105.7913296"},"way_id":599536678}
{"request":{"street":"3, Khu Giãn Dân Mậu Lương Phường Kiến Hưng, Quận Hà Đông, Kiến Hưng","latitude":"20.9569052","name":"Xưởng Cơ Khí Đình Khánh","street_number":"3, Khu Giãn Dân Mậu Lương Phường Kiến Hưng, Quận Hà Đông, Kiến Hưng","type":"114","longitude":"105.7912244"},"way_id":599536678}
{"request":{"street":"Số 3 Tổ 10 Khu dãn dân, Mậu Lương, P","latitude":"20.9568268","name":"HT SCREEN PRINTING INK","street_number":"Số 3 Tổ 10 Khu dãn dân, Mậu Lương, P","type":"114","longitude":"105.7914620"},"way_id":599536678}
{"request":{"street":"Số 03 Tổ 10","latitude":"20.9568437","name":"HT VIET NAM BUSINESS AND PRODUCTION COMPANY LIMITED","street_number":"Số 03 Tổ 10","type":"114","longitude":"105.7914889"},"way_id":599536678}
{"request":{"street":"Số 3 Tô 10, Kiến Hưng","latitude":"20.9568842","name":"HT Việt Nam","street_number":"Số 3 Tô 10, Kiến Hưng","type":"114","longitude":"105.7914948"},"way_id":599536678}
{"request":{"street":"68, Tổ 10, Khu Giãn Dân Mậu Lương, Phường Kiến Hưng, Quận Hà Đông, Kiến Hưng","latitude":"20.9565873","name":"Đại Lý Gạo Tuấn Minh","street_number":"68, Tổ 10, Khu Giãn Dân Mậu Lương, Phường Kiến Hưng, Quận Hà Đông, Kiến Hưng","type":"114","longitude":"105.7915633"},"way_id":599536678}
{"request":{"street":"12 Mậu Lương, Kiến Hưng","latitude":"20.9567500","name":"Công Ty Cổ Phần Xây Dựng Nam Hải Anh","street_number":"12 Mậu Lương, Kiến Hưng","type":"114","longitude":"105.7915719"},"way_id":599536678}
{"request":{"street":"12 Mậu Lương, Kiến Hưng","latitude":"20.9567359","name":"Cơm Ngon Minh Phúc","street_number":"12 Mậu Lương, Kiến Hưng","type":"50","longitude":"105.7915981"},"way_id":599536678}
{"request":{"street":"Số nhà 96, tổ 10, khu giãn dân, Mậu Lương, Kiến Hưng","latitude":"20.9562881","name":"Công ty Ngân Hà","street_number":"Số nhà 96, tổ 10, khu giãn dân, Mậu Lương, Kiến Hưng","type":"114","longitude":"105.7914399"},"way_id":599536678}
{"request":{"street":"Lk01- L30- ĐG, Mậu Lương, Kiến Hưng","latitude":"20.9565905","name":"Công Ty TNHH TM và XD Tiến Minh","street_number":"Lk01- L30- ĐG, Mậu Lương, Kiến Hưng","type":"93","longitude":"105.7916351"},"way_id":599536678}
{"request":{"street":"47- Tổ 9 Mậu Lương, Kiến Hưng","latitude":"20.9569362","name":"Trà Sữa Trân Châu Đường Đen - Hong Kong","street_number":"47- Tổ 9 Mậu Lương, Kiến Hưng","type":"114","longitude":"105.7915556"},"way_id":599536678}
{"request":{"street":"16, Đường Mậu Lương Phường Kiến Hưng, Quận Hà Đông, Kiến Hưng","latitude":"20.9564702","name":"Cửa Hàng Đá Ốp Lát","street_number":"16, Đường Mậu Lương Phường Kiến Hưng, Quận Hà Đông, Kiến Hưng","type":"93","longitude":"105.7916236"},"way_id":599536678}
{"request":{"street":"24 Mậu Lương, Kiến Hưng","latitude":"20.9567073","name":"Lux House","street_number":"24 Mậu Lương, Kiến Hưng","type":"93","longitude":"105.7916878"},"way_id":599536678}
{"request":{"street":"undefined","latitude":"20.9561020","name":"Phố Hoàng Công","street_number":"undefined","type":"114","longitude":"105.7929454"},"way_id":599197635}
{"request":{"street":"Phố Hoàng Công, Kiến Hưng","latitude":"20.9562711","name":"Sân bóng Mậu Lương","street_number":"Phố Hoàng Công, Kiến Hưng","type":"114","longitude":"105.7935563"},"way_id":599197635}
{"request":{"street":"Phố Hoàng Công, Kiến Hưng","latitude":"20.9557247","name":"Medo auto","street_number":"Phố Hoàng Công, Kiến Hưng","type":"108","longitude":"105.7934659"},"way_id":599197635}
{"request":{"street":"Trung tâm TDTT Mậu Lương","latitude":"20.9561790","name":"Moka coffee","street_number":"Trung tâm TDTT Mậu Lương","type":"52","longitude":"105.7934890"},"way_id":599197635}
{"request":{"street":"Sân bóng Mậu Lương, ĐD, Kiến Hưng","latitude":"20.9560121","name":"Gym","street_number":"Sân bóng Mậu Lương, ĐD, Kiến Hưng","type":"4","longitude":"105.7931055"},"way_id":599197635}
{"request":{"street":"tổ dân phố số 7","latitude":"20.9555643","name":"Công ty cổ phần Đầu tư Xây dựng và Dịch vụ tòa nhà","street_number":"tổ dân phố số 7","type":"114","longitude":"105.7932965"},"way_id":599197635}
{"request":{"street":"Phố Hoàng Công, Kiến Hưng","latitude":"20.9555397","name":"Công ty BSCI","street_number":"Phố Hoàng Công, Kiến Hưng","type":"114","longitude":"105.7933011"},"way_id":599197635}
{"request":{"street":"Liền kề 2, Lô 21, Khu đấu giá, Mậu Lương","latitude":"20.9555288","name":"Happy Star English Center - Trung tâm tiếng Anh và tin học Happy Star","street_number":"Liền kề 2, Lô 21, Khu đấu giá, Mậu Lương","type":"5","longitude":"105.7932993"},"way_id":599197635}
{"request":{"street":"Unnamed Road","latitude":"20.9555813","name":"8 LK1","street_number":"Unnamed Road","type":"24","longitude":"105.7931521"},"way_id":599197635}
{"request":{"street":"undefined","latitude":"20.9555827","name":"8 - LK1 Khu đấu giá Mậu Lương","street_number":"undefined","type":"114","longitude":"105.7931415"},"way_id":599197635}
{"request":{"street":"Khu đô thị Mậu Lương","latitude":"20.9554637","name":"Nhà phân phối thiết bị vệ sinh công nghiệp BSCI","street_number":"Khu đô thị Mậu Lương","type":"114","longitude":"105.7934778"},"way_id":599197635}
{"request":{"street":"Khu đô thị Mậu Lương","latitude":"20.9554432","name":"BÀN ĂN THÔNG MINH OLADA","street_number":"Khu đô thị Mậu Lương","type":"93","longitude":"105.7934787"},"way_id":599197635}
{"request":{"street":"Sân bóng Mậu Lương, ĐD, Kiến Hưng","latitude":"20.9555165","name":"Home Cafe","street_number":"Sân bóng Mậu Lương, ĐD, Kiến Hưng","type":"24","longitude":"105.7931095"},"way_id":599197635}
{"request":{"street":"Kiến Hưng","latitude":"20.9556186","name":"HÙNG NGÂN MOBILE","street_number":"Kiến Hưng","type":"114","longitude":"105.7938324"},"way_id":599197635}
{"request":{"street":"Sau Sân bóng, Kiến Hưng","latitude":"20.9556176","name":"Cà phê Mậu","street_number":"Sau Sân bóng, Kiến Hưng","type":"52","longitude":"105.7938318"},"way_id":599197635}
{"request":{"street":"Liền kề 594, Dịch vụ 13, Khu đô thị Mậu Lương, Hà Đông Hà Nội","latitude":"20.9554939","name":"Công ty TNHH TXD","street_number":"Liền kề 594, Dịch vụ 13, Khu đô thị Mậu Lương, Hà Đông Hà Nội","type":"114","longitude":"105.7937029"},"way_id":599197635}
{"request":{"street":"Đường Phố Hoàng Công, Kiến Hưng","latitude":"20.9562244","name":"Cửa Hàng Nội Thất An Nguyên","street_number":"Đường Phố Hoàng Công, Kiến Hưng","type":"93","longitude":"105.7930600"},"way_id":599197635}
{"request":{"street":"Mậu Lương, Kiến Hưng","latitude":"20.9554027","name":"Happy Stars Center","street_number":"Mậu Lương, Kiến Hưng","type":"114","longitude":"105.7933845"},"way_id":599197635}
{"request":{"street":"Unnamed Road, Kiến Hưng","latitude":"20.9556740","name":"Tolsen Hà Nội","street_number":"Unnamed Road, Kiến Hưng","type":"114","longitude":"105.7938870"},"way_id":599197635}
{"request":{"street":"Số 273A tổ 11, Mậu Lương, Kiến Hưng","latitude":"20.9586035","name":"Diệu Linh teacher","street_number":"Số 273A tổ 11, Mậu Lương, Kiến Hưng","type":"114","longitude":"105.7937601"},"way_id":599518228}
{"request":{"street":"Mậu Lương","latitude":"20.9584435","name":"Tuyên Bùi Home","street_number":"Mậu Lương","type":"24","longitude":"105.7934352"},"way_id":599518228}
{"request":{"street":"273, Mậu Lương","latitude":"20.9591144","name":"LỚP HỌC TOÁN-LÝ Kiến Hưng Hà Đông","street_number":"273, Mậu Lương","type":"114","longitude":"105.7936841"},"way_id":599518228}
{"request":{"street":"Dịch vụ Sinh thái Nguyễn Nhậm, Kiến Hưng","latitude":"20.9581276","name":"pham van sao","street_number":"Dịch vụ Sinh thái Nguyễn Nhậm, Kiến Hưng","type":"93","longitude":"105.7933942"},"way_id":599518228}
{"request":{"street":"Mậu Lương","latitude":"20.9585166","name":"biển chức danh","street_number":"Mậu Lương","type":"114","longitude":"105.7944721"},"way_id":599518228}
{"request":{"street":"17-18, Khu Đấu Giá Đất Mậu Lương, Mậu Lương, Phường Kiến Hưng, Quận Hà Đông, Thành Phố Hà Nội, Kiến Hưng","latitude":"20.9587746","name":"Công Ty Cổ Phần Đầu Tư Xây Dựng Và Phát Triển Thương Mại 379","street_number":"17-18, Khu Đấu Giá Đất Mậu Lương, Mậu Lương, Phường Kiến Hưng, Quận Hà Đông, Thành Phố Hà Nội, Kiến Hưng","type":"114","longitude":"105.7944828"},"way_id":599518228}
{"request":{"street":"Đa Sỹ, Kiến Hưng","latitude":"20.9578456","name":"Cửa Hàng Tạo Mẫu Tóc Minh Phượng","street_number":"Đa Sỹ, Kiến Hưng","type":"114","longitude":"105.7936183"},"way_id":599518228}
{"request":{"street":"Văn Quán","latitude":"20.9796446","name":"Văn Quán","street_number":"Văn Quán","type":"2","longitude":"105.7923394"},"way_id":220005736}
{"request":{"street":"Đường Phùng Hưng, P. Văn Quán","latitude":"20.9736719","name":"Cấp Lại Bằng Lái Xe - Sở GTVT HN","street_number":"Đường Phùng Hưng, P. Văn Quán","type":"5","longitude":"105.7818900"},"way_id":220005736}
{"request":{"street":"115A Đường 70, Huyện Thanh Trì, Hà Nội","latitude":"20.9720575","name":"Công Ty TNHH Thương Mại Tổng Hợp Hà Thành","street_number":"115A Đường 70, Huyện Thanh Trì, Hà Nội","type":"114","longitude":"105.7829763"},"way_id":220005736}
{"request":{"street":"Đường Phùng Hưng, P. Văn Quán","latitude":"20.9729088","name":"Sửa máy tính tại nhà Hà Nội IT computer Hà Nội","street_number":"Đường Phùng Hưng, P. Văn Quán","type":"114","longitude":"105.7822974"},"way_id":220005736}
{"request":{"street":"số 2 Đường Phùng Hưng, P. Văn Quán","latitude":"20.9732149","name":"Công Ty Cp Đánh Vần Tiếng Anh Enpro","street_number":"số 2 Đường Phùng Hưng, P. Văn Quán","type":"114","longitude":"105.7820074"},"way_id":220005736}
{"request":{"street":"Phung Hung street Ha Noi Hanoi City","latitude":"20.9730520","name":"Le Music Art Center","street_number":"Phung Hung street Ha Noi Hanoi City","type":"114","longitude":"105.7826980"},"way_id":220005736}
{"request":{"street":"Vietnam","latitude":"20.9726667","name":"Trung Tâm Văn Hóa Thông Tin - Phùng Hưng (Hà Đông)","street_number":"Vietnam","type":"113","longitude":"105.7825833"},"way_id":220005736}
{"request":{"street":"211 Đường Phùng Hưng, P. Văn Quán","latitude":"20.9732367","name":"Siêu thị điện thoại di động Tuấn Thoan","street_number":"211 Đường Phùng Hưng, P. Văn Quán","type":"93","longitude":"105.7818537"},"way_id":220005736}
{"request":{"street":"22 Đường Phùng Hưng, P. Văn Quán","latitude":"20.9724821","name":"WC","street_number":"22 Đường Phùng Hưng, P. Văn Quán","type":"114","longitude":"105.7823462"},"way_id":220005736}
{"request":{"street":"Vietnam","latitude":"20.9724667","name":"Đối Diện Trung Tâm Văn Hóa Thông Tin Tỉnh Hà Tây - Phùng Hưng (Hà Đông)","street_number":"Vietnam","type":"113","longitude":"105.7824167"},"way_id":220005736}
{"request":{"street":"Số 2 Đường Phùng Hưng, P. Văn Quán","latitude":"20.9735105","name":"Sở Giao Thông Vận Tải Hà Nội","street_number":"Số 2 Đường Phùng Hưng, P. Văn Quán","type":"113","longitude":"105.7823616"},"way_id":220005736}
{"request":{"street":"2 Đường Phùng Hưng, P. Văn Quán","latitude":"20.9735444","name":"Văn phòng Thành ủy Hà Nội","street_number":"2 Đường Phùng Hưng, P. Văn Quán","type":"128","longitude":"105.7822510"},"way_id":220005736}
{"request":{"street":"Số 7 Đường Phùng Hưng, P. Văn Quán","latitude":"20.9731088","name":"Trung Tâm Văn Hóa Thành Phố Hà Nội","street_number":"Số 7 Đường Phùng Hưng, P. Văn Quán","type":"128","longitude":"105.7828772"},"way_id":220005736}
{"request":{"street":"Phúc La","latitude":"20.9654323","name":"Phúc La","street_number":"Phúc La","type":"2","longitude":"105.7894045"},"way_id":220005736}
{"request":{"street":"2 Trần Phú, P. Mộ Lao","latitude":"20.9847279","name":"Học viện Y Dược học Cổ truyền Việt Nam","street_number":"2 Trần Phú, P. Mộ Lao","type":"4","longitude":"105.7925659"},"way_id":710270797}
{"request":{"street":"Vietnam","latitude":"20.9826980","name":"VnDrupal","street_number":"Vietnam","type":"114","longitude":"105.7913120"},"way_id":710270797}
{"request":{"street":"10 Nguyễn Trãi, P. Mộ Lao","latitude":"20.9827283","name":"Lotteria","street_number":"10 Nguyễn Trãi, P. Mộ Lao","type":"50","longitude":"105.7904535"},"way_id":710270797}
{"request":{"street":"{{Province, P. Mộ Lao","latitude":"20.9835595","name":"Melody Flower \u0026 Gift Shop","street_number":"{{Province, P. Mộ Lao","type":"93","longitude":"105.7911730"},"way_id":710270797}
{"request":{"street":"18 Trần Phú, P. Mộ Lao","latitude":"20.9825277","name":"Tòa Soạn Dien Tu.Com","street_number":"18 Trần Phú, P. Mộ Lao","type":"114","longitude":"105.7907116"},"way_id":710270797}
{"request":{"street":"1 Trần Phú, P. Mộ Lao","latitude":"20.9830798","name":"Xe Điện Việt Thanh Hà Đông","street_number":"1 Trần Phú, P. Mộ Lao","type":"93","longitude":"105.7920611"},"way_id":710270797}
{"request":{"street":"109 Trần Phú, P. Văn Quán","latitude":"20.9833942","name":"Dịch Vụ In Bảo Tín Phát","street_number":"109 Trần Phú, P. Văn Quán","type":"93","longitude":"105.7921600"},"way_id":710270797}
{"request":{"street":"Tầng 3 - Tòa nhà Machinco1 Số 10, Trần Phú, P. Mộ Lao","latitude":"20.9834281","name":"Văn Phòng Kiến Trúc K5House","street_number":"Tầng 3 - Tòa nhà Machinco1 Số 10, Trần Phú, P. Mộ Lao","type":"114","longitude":"105.7916295"},"way_id":710270797}
{"request":{"street":"10 Trần Phú, P. Mộ Lao","latitude":"20.9834543","name":"Siêu Thị Iki.Vn","street_number":"10 Trần Phú, P. Mộ Lao","type":"93","longitude":"105.7915592"},"way_id":710270797}
{"request":{"street":"107 Trần Phú, P. Văn Quán","latitude":"20.9834420","name":"Bienled.Vn","street_number":"107 Trần Phú, P. Văn Quán","type":"114","longitude":"105.7923101"},"way_id":710270797}
{"request":{"street":"10 Trần Phú, P. Mộ Lao","latitude":"20.9833792","name":"Nhật Huy Plaza","street_number":"10 Trần Phú, P. Mộ Lao","type":"13","longitude":"105.7914680"},"way_id":710270797}
{"request":{"street":"101 Quốc lộ 6, P. Văn Quán","latitude":"20.9835078","name":"Her 25","street_number":"101 Quốc lộ 6, P. Văn Quán","type":"93","longitude":"105.7923236"},"way_id":710270797}
{"request":{"street":"10 Trần Phú, P. Mộ Lao","latitude":"20.9834657","name":"Trung Tâm Anh Ngữ Ipass","street_number":"10 Trần Phú, P. Mộ Lao","type":"114","longitude":"105.7914198"},"way_id":710270797}
{"request":{"street":"10 Trần Phú, P. Mộ Lao","latitude":"20.9834388","name":"Trung Tâm Bảo Hành Samsung","street_number":"10 Trần Phú, P. Mộ Lao","type":"114","longitude":"105.7913905"},"way_id":710270797}
{"request":{"street":"10 Trần Phú, P. Mộ Lao","latitude":"20.9834656","name":"Ngân Hàng Liên Việt","street_number":"10 Trần Phú, P. Mộ Lao","type":"59","longitude":"105.7913896"},"way_id":710270797}
{"request":{"street":"8 Trần Phú, P. Mộ Lao","latitude":"20.9837758","name":"Viện Nghiên Cứu Thiết Kế Chế Tạo Máy Nông Nghiệp","street_number":"8 Trần Phú, P. Mộ Lao","type":"114","longitude":"105.7919347"},"way_id":710270797}
{"request":{"street":"18 Chiến Thắng, P. Văn Quán","latitude":"20.9832046","name":"Tổng đại lý phân phối giày dép da ENSADO","street_number":"18 Chiến Thắng, P. Văn Quán","type":"114","longitude":"105.7927694"},"way_id":710270797}
{"request":{"street":"11 Chiến Thắng, P. Văn Quán","latitude":"20.9827181","name":"Công Ty TNHH Đào Tạo Và Truyền Thông Nam Sơn","street_number":"11 Chiến Thắng, P. Văn Quán","type":"114","longitude":"105.7928360"},"way_id":710270797}
{"request":{"street":"Km10 Nguyễn Trãi, P. Văn Quán","latitude":"20.9805524","name":"Trường Đại Học Kiến Trúc Hà Nội","street_number":"Km10 Nguyễn Trãi, P. Văn Quán","type":"45","longitude":"105.7893665"},"way_id":693652772}
{"request":{"street":"Vietnam","latitude":"20.9800584","name":"VENUSKISS","street_number":"Vietnam","type":"93","longitude":"105.7884415"},"way_id":693652772}
{"request":{"street":"Nguyễn Trãi, P. Văn Quán","latitude":"20.9797579","name":"Học Viện Anh Ngữ EQuest Nguyễn Trãi","street_number":"Nguyễn Trãi, P. Văn Quán","type":"114","longitude":"105.7878631"},"way_id":693652772}
{"request":{"street":"Nguyễn Trãi- Thanh Xuân Nam- Thanh Xuân, P. Mộ Lao","latitude":"20.9802330","name":"TT đào tạo lái xe","street_number":"Nguyễn Trãi- Thanh Xuân Nam- Thanh Xuân, P. Mộ Lao","type":"114","longitude":"105.7877710"},"way_id":693652772}
{"request":{"street":"Ngõ A Kiến Trúc, P. Văn Quán","latitude":"20.9801436","name":"Cửa hàng In Biển Đông","street_number":"Ngõ A Kiến Trúc, P. Văn Quán","type":"93","longitude":"105.7889763"},"way_id":693652772}
{"request":{"street":"Ngõ A Kiến Trúc, P. Văn Quán","latitude":"20.9804972","name":"Công ty Cp Sông Đà 2","street_number":"Ngõ A Kiến Trúc, P. Văn Quán","type":"114","longitude":"105.7885714"},"way_id":693652772}
{"request":{"street":"142 Trần Phú, P. Mộ Lao","latitude":"20.9802102","name":"ATM VPBank","street_number":"142 Trần Phú, P. Mộ Lao","type":"114","longitude":"105.7874786"},"way_id":693652772}
{"request":{"street":"Trần Phú, P. Văn Quán","latitude":"20.9801978","name":"Công Ty TNHH Đầu Tư 3V","street_number":"Trần Phú, P. Văn Quán","type":"114","longitude":"105.7880520"},"way_id":693652772}
{"request":{"street":"P. Mộ Lao","latitude":"20.9801277","name":"Viện Công nghệ Thông tin và Truyền thông CDiT","street_number":"P. Mộ Lao","type":"114","longitude":"105.7881033"},"way_id":693652772}
{"request":{"street":"Lương Yên, P. Văn Quán","latitude":"20.9801610","name":"smecta","street_number":"Lương Yên, P. Văn Quán","type":"114","longitude":"105.7884510"},"way_id":693652772}
{"request":{"street":"Km10, Nguyễn Trãi, Hà Đông, Hà Nội, P. Mộ Lao","latitude":"20.9806357","name":"Điểm Bán Vé Xe Bus A11","street_number":"Km10, Nguyễn Trãi, Hà Đông, Hà Nội, P. Mộ Lao","type":"103","longitude":"105.7880194"},"way_id":693652772}
{"request":{"street":"Trần Phú, P. Văn Quán","latitude":"20.9802187","name":"HA NOI CPM ALUMINIUM \u0026 GLASS","street_number":"Trần Phú, P. Văn Quán","type":"114","longitude":"105.7885947"},"way_id":693652772}
{"request":{"street":"A40 -TT 17 -VĂN QUÁN HÀ ĐÔNG, P. Mộ Lao","latitude":"20.9802671","name":"Gỗ Hoàng Gia","street_number":"A40 -TT 17 -VĂN QUÁN HÀ ĐÔNG, P. Mộ Lao","type":"93","longitude":"105.7877107"},"way_id":693652772}
{"request":{"street":"P2507 tòa nhà Sông Đà - 125 Trần Phú Hà Đông","latitude":"20.9799090","name":"Trang Trí Ban Công Hà Nội","street_number":"P2507 tòa nhà Sông Đà - 125 Trần Phú Hà Đông","type":"114","longitude":"105.7883700"},"way_id":693652772}
{"request":{"street":"139, Trần Phú, Phường Mộ Lao, Quận Hà Đông, Thành Phố Hà Nội, P. Mộ Lao","latitude":"20.9807872","name":"Công Ty Cổ Phần Tư Vấn \u0026 Thiết Kế Kiến An","street_number":"139, Trần Phú, Phường Mộ Lao, Quận Hà Đông, Thành Phố Hà Nội, P. Mộ Lao","type":"114","longitude":"105.7882681"},"way_id":693652772}
{"request":{"street":"Số 135 Trần Phú, P. Văn Quán","latitude":"20.9799677","name":"Thời Trang Seven.AM Hà Đông","street_number":"Số 135 Trần Phú, P. Văn Quán","type":"93","longitude":"105.7878689"},"way_id":693652772}
{"request":{"street":"Nguyễn Trãi, P. Văn Quán","latitude":"20.9800320","name":"Media Star","street_number":"Nguyễn Trãi, P. Văn Quán","type":"93","longitude":"105.7885809"},"way_id":693652772}
